"created_on","provincia","partido","rooms","surface_total","surface_covered","price","currency","title","property_type","operation_type","lat","long"
"202005","GBA","La Plata",8,840,325,85000,"ARS","San Facundo alquiler","Casa","Alquiler",-58.0424514,-34.8984722
"202005","CABA","Comuna 5",2,48,46,140000,"USD","Gascon al 100","Departamento","Venta",-58.4245255,-34.6111809
"202005","GBA","Escobar",2,165,65,20000,"ARS","Lindisimo departamento en alquiler . Complejo Civis Tortuguitas,  dos ambientes  con amenities","Departamento","Alquiler",-58.7396263,-34.4432965
"202005","CABA","Comuna 14",2,55,50,48000,"ARS","Fray Justo Santa Maria de Oro al 2800","Departamento","Alquiler",-58.4212497,-34.575892
"202005","CABA","Comuna 1",2,60,55,19000,"ARS","2 ambientes de 60 m2 con amenities","Departamento","Alquiler",-58.3904698,-34.6083256
"202005","CABA","Comuna 6",2,51,45,25000,"ARS","Impecable 2 amb c/cochera, SUM y parrilla - Subte A Carabobo","Departamento","Alquiler",-58.453443,-34.6267302
"202005","CABA","Comuna 15",2,62,48,110001,"USD","Departamento de 2 ambientes en Venta en Villa crespo","Departamento","Venta",-58.448566,-34.5953491
"202005","CABA","Comuna 1",2,90,70,65000,"ARS","EDIFICIO LUMIERE- Gran Categoría Piso 9 Duplex con terraza- Gran Vista y Estado","Departamento","Alquiler",-58.3627542,-34.615607
"202005","GBA","General San Martín",2,50,45,93000,"USD","Alvear Esq Libertad Departamento  2 Ambientes a Estrenar!Villa Ballester","Departamento","Venta",-58.5552768,-34.5499766
"202005","GBA","Pilar",3,80,80,22000,"ARS","Departamento - Villa Morra I","Departamento","Alquiler",-58.8980623,-34.4515034
"202005","GBA","Tigre",3,58,58,35000,"ARS","Departamento amoblado en alquiler temporal en El Palmar Nordelta","Departamento","Alquiler",-58.6574054412,-34.4255154293
"202005","GBA","Morón",3,95,95,29000,"ARS","Departamento - Castelar Norte","Departamento","Alquiler",-58.6398179,-34.6490363
"202005","CABA","Comuna 13",3,72,60,43000,"ARS","Belgrano - Alquiler Amoblado - Moderno y muy luminoso 3 ambientes","Departamento","Alquiler",-58.4564184,-34.5549018
"202005","GBA","Lomas de Zamora",3,72,70,16000,"ARS","DEPTO 3 AMB CENTRO DE LOMAS DE ZAMORA","Departamento","Alquiler",-58.3989027,-34.7633451
"202005","CABA","Comuna 12",4,150,125,45000,"ARS","Saavedra excelente ph tipo loft alo frente c/ coch.","PH","Alquiler",-58.4895809,-34.5518273
"202005","GBA","Escobar",4,214,184,240000,"USD","Casa con espectacular Pileta en Contry Loma Verde","Casa","Venta",-58.7319903,-34.4153313
"202005","GBA","Escobar",4,120,80,135000,"USD","OPORTUNIDAD, Casa en Venta en el Country Maschwitz Club","Casa","Venta",-58.7560113,-34.3774649
"202005","GBA","La Plata",4,1044,82,78000,"USD","casa de 3 dormitorios a reciclar","Casa","Venta",-58.0791137,-34.8535254
"202005","CABA","Comuna 14",4,98,74,290000,"USD","Zapata al 300 c/terraza ppia y cochera!","Departamento","Venta",-58.440661,-34.573864
"202005","CABA","Comuna 1",4,100,92,40000,"ARS","Marcelo T de Alvear y Uruguay 100 m2","Departamento","Alquiler",-58.386505,-34.5969523
"202005","CABA","Comuna 13",5,210,188,645000,"USD","Soñado Piso Alto con Vista Abierta y Cochera en Torre de Categoría","Departamento","Venta",-58.4460755811,-34.5645847593
"202005","GBA","Tigre",3,102,70,195000,"USD","Departamento tipo casa 3 ambientes con jardin y parrilla. Nordelta","Casa","Venta",-58.657567862,-34.4252844997
"202005","GBA","Tigre",3,102,70,195000,"USD","Departamento tipo casa 3 ambientes con jardin y parrilla. Nordelta","Departamento","Venta",-58.657567862,-34.4252844997
"202005","GBA","Pilar",2,45,45,119000,"USD","Departamento Amoblado - Las Mercedes","Departamento","Venta",-58.9194779,-34.4479523
"202005","GBA","Pilar",2,45,45,24000,"ARS","Departamento Amoblado - Las Mercedes","Departamento","Alquiler",-58.9194779,-34.4479523
"202005","CABA","Comuna 5",1,50,50,30000,"ARS","Departamento - Abasto","Departamento","Alquiler",-58.4138736,-34.6042326
"202005","CABA","Comuna 2",1,30,30,30000,"ARS","Departamento - Barrio Norte","Departamento","Alquiler",-58.4081527,-34.5952783
"202005","GBA","Tigre",2,68,44,120000,"USD","Departamento en venta en Complejo La Mora, Tigre","Departamento","Venta",-58.5927394,-34.4251796
"202005","GBA","Tigre",2,52,52,129000,"USD","Departamento en venta en Condominios del Wyndham, Nordelta","Departamento","Venta",-58.6478074,-34.396684
"202005","GBA","Tigre",2,50,50,175000,"USD","Departamento en venta en Studios de la Bahia, Bahia Grande, Nordelta","Departamento","Venta",-58.6498334,-34.3947151
"202005","CABA","Comuna 13",2,52,52,174500,"USD","Belgrano | Av. Franklin Roosevelt y Vuelta de Obligado | Departamento de 2 ambientes APTO PROFESIONAL.","Departamento","Venta",-58.4597226606,-34.5567697823
"202005","CABA","Comuna 13",2,58,49,148400,"USD","Departamento - Belgrano","Departamento","Venta",-58.4474094,-34.5724437
"202005","CABA","Comuna 13",2,52,52,171000,"USD","Departamento - Belgrano","Departamento","Venta",-58.4597226606,-34.5567697823
"202005","GBA","Quilmes",3,87,82,220000,"USD","Luminoso departamento 3 amb. a estrenar en lote externo Nuevo Quilmes","Departamento","Venta",-58.2880635016,-34.6993892983
"202005","CABA","Comuna 2",3,137,127,395000,"USD","Venta - Callao Av. 1800","Departamento","Venta",-58.3887071,-34.5889267
"202005","GBA","Pilar",4,550,200,278000,"USD","Casa en venta en Barrio El Aljibe, Manzanares","Casa","Venta",-59.00825,-34.4533889
"202005","CABA","Comuna 14",4,148,148,398000,"USD","Clásico y Amplio Departamento 4 amb c/depen y baulera -  Botánico  Palermo","Departamento","Venta",-58.4118226,-34.5805175
"202005","GBA","Vicente López",4,182,140,728000,"USD","Departamento en Venta -  4 ambientes en Olivos-Vias/Rio - ESPECTACULAR VISTA","Departamento","Venta",-58.4774756,-34.5086303
"202005","GBA","Escobar",5,970,176,218000,"USD","Casa en venta  en Barrio San Matias, Escobar","Casa","Venta",-58.7546261,-34.36352
"202005","CABA","Comuna 14",2,45,42,22000,"ARS","Nicaragua 5800 Palermo Hollywood","Departamento","Alquiler",-58.4369136,-34.5788606
"202005","CABA","Comuna 14",3,100,73,52000,"ARS","ARCE 500","Departamento","Alquiler",-58.42688084,-34.56965901
"202005","CABA","Comuna 2",3,120,116,27000,"ARS","Quintana al 300. Con o sin muebles","Departamento","Alquiler",-58.387919,-34.5901989
"202005","GBA","Tres de Febrero",3,70,68,16000,"ARS","Departamento 3 ambientes c/ balcon al frente","Departamento","Alquiler",-58.5359543,-34.5982644
"202005","GBA","Esteban Echeverría",7,403,403,1100000,"USD","Casa - Saint Thomas","Casa","Venta",-58.504889,-34.886289
"202005","CABA","Comuna 5",1,45,45,30000,"ARS","Departamento - Almagro","Departamento","Alquiler",-58.426855,-34.6021298
"202005","CABA","Comuna 14",2,50,50,40000,"ARS","Departamento - Las Cañitas","Departamento","Alquiler",-58.4377797,-34.5665135
"202005","CABA","Comuna 13",1,40,34,127400,"USD","Piso 8 - Monoambiente con Balcón y Amenities - Emprendimiento en BELGRANO","Departamento","Venta",-58.447459601,-34.5723327453
"202005","CABA","Comuna 13",1,40,34,103600,"USD","Monoambiente con Balcón y Amenities - Emprendimiento LIVE BELGRANO","Departamento","Venta",-58.447459601,-34.5723327453
"202005","GBA","San Isidro",1,32,31,79000,"USD","Departamento con balcon frente al Hipódromo de San Isidro. Acassuso San Isidro","Departamento","Venta",-58.5090227,-34.477851
"202005","CABA","Comuna 15",2,37,37,66900,"USD","Depto.tipo casa de 2 ambientes en Venta en Paternal","PH","Venta",-58.4662313124,-34.5938938763
"202005","GBA","Tigre",2,66,58,100404,"USD","HOME &amp; OFFICE EL PLACER INSPIRADO POR LA NATURALEZA","Departamento","Venta",-58.5796585,-34.425087
"202005","GBA","Tigre",2,66,58,93546,"USD","HOME &amp; OFFICE EL PLACER INSPIRADO POR LA NATURALEZA","Departamento","Venta",-58.5796585,-34.425087
"202005","GBA","Tigre",2,66,58,97000,"USD","HOME &amp; OFFICE EL PLACER INSPIRADO POR LA NATURALEZA","Departamento","Venta",-58.5796585,-34.425087
"202005","GBA","Tigre",2,66,58,95296,"USD","HOME &amp; OFFICE EL PLACER INSPIRADO POR LA NATURALEZA","Departamento","Venta",-58.5796585,-34.425087
"202005","CABA","Comuna 15",2,66,50,145000,"USD","Departamento de 2 ambientes en Venta en Almagro","Departamento","Venta",-58.426984115,-34.5995931048
"202005","CABA","Comuna 5",2,40,40,88000,"USD","EXCELENTE DEPARTAMENTO DE 2 AMBIENTES EN ALMAGRO","Departamento","Venta",-58.4242689,-34.6046187
"202005","CABA","Comuna 5",2,46,42,176904,"USD","Departamento de 2 ambientes en Venta en Almagro","Departamento","Venta",-58.41797,-34.60381
"202005","CABA","Comuna 5",2,53,46,194870,"USD","Departamento de 2 ambientes en Venta en Almagro","Departamento","Venta",-58.41797,-34.60381
"202005","CABA","Comuna 5",2,50,45,145001,"USD","Departamento de 2 ambientes en Venta en Almagro","Departamento","Venta",-58.4278318,-34.6082829
"202005","CABA","Comuna 5",2,51,47,180695,"USD","Departamento de 2 ambientes en Venta en Almagro","Departamento","Venta",-58.4183102,-34.6033231
"202005","CABA","Comuna 5",2,51,47,183433,"USD","Departamento de 2 ambientes en Venta en Almagro","Departamento","Venta",-58.4183102,-34.6033231
"202005","CABA","Comuna 2",2,56,52,190000,"USD","Departamento de 2 ambientes en Venta en Palermo","Departamento","Venta",-58.4147048655,-34.5974204938
"202005","CABA","Comuna 14",2,47,42,149500,"USD","Departamento de 2 ambientes en Venta en Palermo","Departamento","Venta",-58.4192700419,-34.5967929661
"202005","CABA","Comuna 15",2,52,46,125000,"USD","Departamento de 2 ambientes en Venta en Palermo","Departamento","Venta",-58.4422322,-34.5933706
"202005","CABA","Comuna 14",2,52,48,188001,"USD","Departamento de 2 ambientes en Venta en Palermo","Departamento","Venta",-58.4237712,-34.590031
"202005","CABA","Comuna 13",2,60,49,206000,"USD","Excelente 2 amb. con Balcón y Amenities - Emprendimiento en BELGRANO","Departamento","Venta",-58.4473755804,-34.5723841184
"202005","CABA","Comuna 13",2,60,49,199900,"USD","Piso Alto - Excepcional 2 amb. con Balcón y Amenities - Emprendimiento Boutique","Departamento","Venta",-58.4473755804,-34.5723841184
"202005","CABA","Comuna 3",2,47,35,75001,"USD","Departamento de 2 ambientes en Venta en Congreso","Departamento","Venta",-58.3946282,-34.61336
"202005","CABA","Comuna 15",2,32,32,78800,"USD","Departamento de 2 ambientes en Venta en Villa crespo","Departamento","Venta",-58.4423151144,-34.5998612365
"202005","CABA","Comuna 15",2,61,46,22000,"ARS","Departamento de 2 ambientes en Alquiler en Villa crespo","Departamento","Alquiler",-58.4528727291,-34.6003541287
"202005","CABA","Comuna 15",2,44,41,120000,"USD","Departamento de 2 ambientes en Venta en Villa crespo","Departamento","Venta",-58.441829,-34.594904
"202005","CABA","Comuna 15",2,37,37,85000,"USD","Departamento de 2 ambientes en Venta en Villa crespo","Departamento","Venta",-58.4406533796,-34.5961944091
"202005","CABA","Comuna 15",2,38,35,84103,"USD","Departamento de 2 ambientes en Venta en Villa crespo","Departamento","Venta",-58.4454984,-34.5972556
"202005","CABA","Comuna 15",2,39,39,63001,"USD","Departamento de 2 ambientes en Venta en Villa crespo","Departamento","Venta",-58.437714,-34.597101
"202005","CABA","Comuna 1",2,102,88,370000,"USD","Amplio 2 ambientes en venta - Harbour Residences","Departamento","Venta",-58.3604664,-34.6191653
"202005","GBA","Tigre",3,89,72,145960,"USD","HOME &amp; OFFICE EL PLACER INSPIRADO POR LA NATURALEZA","Departamento","Venta",-58.5796585,-34.425087
"202005","GBA","Tigre",3,89,72,136664,"USD","HOME &amp; OFFICE EL PLACER INSPIRADO POR LA NATURALEZA","Departamento","Venta",-58.5796585,-34.425087
"202005","GBA","Tigre",3,89,72,132027,"USD","HOME &amp; OFFICE EL PLACER INSPIRADO POR LA NATURALEZA","Departamento","Venta",-58.5796585,-34.425087
"202005","CABA","Comuna 5",3,65,60,209000,"USD","Departamento de 3 ambientes en Venta en Almagro","Departamento","Venta",-58.4173,-34.60736
"202005","CABA","Comuna 5",3,90,83,290001,"USD","Departamento de 3 ambientes en Venta en Almagro","Departamento","Venta",-58.4310504,-34.6028961
"202005","CABA","Comuna 5",3,67,58,190000,"USD","Departamento de 3 ambientes en Venta en Almagro norte","Departamento","Venta",-58.4205779296,-34.6046056132
"202005","CABA","Comuna 5",3,90,60,250000,"USD","Departamento de 3 ambientes en Venta en Almagro","Departamento","Venta",-58.4187294,-34.6034604
"202005","CABA","Comuna 15",3,87,77,173000,"USD","Departamento de 3 ambientes en Venta en Almagro","Departamento","Venta",-58.43683,-34.60252
"202005","CABA","Comuna 5",3,84,80,160000,"USD","Impecable tres ambientes en venta","Departamento","Venta",-58.4172765,-34.611024
"202005","CABA","Comuna 5",3,96,89,189000,"USD","Departamento de 3 ambientes en Venta en Almagro norte","Departamento","Venta",-58.4298855,-34.606022
"202005","CABA","Comuna 14",3,99,90,280001,"USD","Departamento de 3 ambientes en Venta en Palermo","Departamento","Venta",-58.4232882,-34.5824698
"202005","CABA","Comuna 14",3,69,59,265001,"USD","Departamento de 3 ambientes en Venta en Palermo hollywood","Departamento","Venta",-58.4384503,-34.5859904
"202005","CABA","Comuna 13",3,126,68,320000,"USD","Excelente 3 amb. con Terraza y Cochera - Emprendimiento Boutique de Categoría","Departamento","Venta",-58.4473970381,-34.5723664499
"202005","CABA","Comuna 13",3,126,68,320000,"USD","Piso Alto 3 amb. con Terraza y Cochera - Emprendimiento Boutique de Categoría","Departamento","Venta",-58.4473970381,-34.5723664499
"202005","GBA","Hurlingham",3,55,45,13500,"ARS","Departamento 3 ambientes con balcón muy buen estado recién pintado","Departamento","Alquiler",-58.6538273,-34.5915717
"202005","CABA","Comuna 15",3,83,80,165000,"USD","Departamento de 3 ambientes en Venta en Villa crespo","Departamento","Venta",-58.4377833063,-34.5979903473
"202005","CABA","Comuna 15",3,53,44,115000,"USD","Departamento de 3 ambientes en Venta en Villa crespo","Departamento","Venta",-58.4445572184,-34.5952207197
"202005","CABA","Comuna 15",3,48,48,120001,"USD","Departamento de 3 ambientes en Venta en Villa crespo","Departamento","Venta",-58.4525637,-34.5990499
"202005","CABA","Comuna 8",3,64,64,85000,"USD","Venta de departamento tres ambientes","Departamento","Venta",-58.4716176,-34.6658761
"202005","CABA","Comuna 12",3,87,60,190000,"USD","VENTA DEPARTAMENTO 3 AMB. C/ DOS PATIOS EN VILLA URQUIZA","Departamento","Venta",-58.4899284,-34.5724453
"202005","CABA","Comuna 15",3,56,56,137000,"USD","Departamento de 3 ambientes en Venta en Parque centenario","Departamento","Venta",-58.4342946,-34.6032201
"202005","CABA","Comuna 14",4,72,72,129000,"USD","Depto.tipo casa de 4 ambientes en Venta en Almagro","PH","Venta",-58.4165331603,-34.598144042
"202005","CABA","Comuna 5",4,102,102,255001,"USD","Depto.tipo casa de 4 ambientes en Venta en Almagro","PH","Venta",-58.416626,-34.6048464
"202005","CABA","Comuna 3",4,100,90,125000,"USD","Departamento de 4 ambientes en Venta en Almagro","Departamento","Venta",-58.3976707844,-34.6019720775
"202005","CABA","Comuna 2",4,90,90,50000,"ARS","Departamento de 4 ambientes en Alquiler en Almagro","Departamento","Alquiler",-58.4152055458,-34.5988846914
"202005","CABA","Comuna 5",4,73,68,195000,"USD","Departamento de 4 ambientes en Venta en Almagro","Departamento","Venta",-58.4193941639,-34.599983353
"202005","CABA","Comuna 15",4,145,132,265000,"USD","Departamento de 4 ambientes en Venta en Almagro","Departamento","Venta",-58.4333641959,-34.6030006631
"202005","CABA","Comuna 2",4,93,93,315000,"USD","Venta - Gallo  1600","Departamento","Venta",-58.4083742,-34.5913416
"202005","CABA","Comuna 13",4,122,102,415000,"USD","RETASADO! Espectacular triplex con hermosa terraza, quincho y parrilla propios! Vivir en un departamento, sentirse en una casa! Impecable. Amenities","Departamento","Venta",-58.4447877,-34.573477
"202005","CABA","Comuna 2",4,119,112,280000,"USD","Venta - Juncal 2800","Departamento","Venta",-58.4057254,-34.5882078
"202005","CABA","Comuna 15",4,95,95,171000,"USD","Departamento de 4 ambientes en Venta en Chacarita","Departamento","Venta",-58.4458224783,-34.5934766319
"202005","CABA","Comuna 5",4,78,70,184000,"USD","Departamento de 4 ambientes en Venta en Villa crespo","Departamento","Venta",-58.4301434,-34.6013644
"202005","CABA","Comuna 15",4,90,85,230000,"USD","Departamento de 4 ambientes en Venta en Villa crespo","Departamento","Venta",-58.43723,-34.6003
"202005","CABA","Comuna 15",4,99,84,220000,"USD","Departamento de 4 ambientes en Venta en Villa crespo","Departamento","Venta",-58.4356258651,-34.5982107117
"202005","CABA","Comuna 15",4,95,95,171000,"USD","Departamento de 4 ambientes en Venta en Villa crespo","Departamento","Venta",-58.4458224783,-34.5934766319
"202005","CABA","Comuna 3",4,130,122,270000,"USD","Departamento de 4 ambientes en Venta en San cristobal","Departamento","Venta",-58.4064599478,-34.6146458268
"202005","CABA","Comuna 14",5,160,160,375001,"USD","Depto.tipo casa de 5 ambientes en Venta en Palermo","PH","Venta",-58.42896,-34.59197
"202005","CABA","Comuna 15",5,156,156,280000,"USD","Depto.tipo casa de 5 ambientes en Venta en Chacarita","PH","Venta",-58.449353,-34.588234
"202005","CABA","Comuna 3",5,130,122,270000,"USD","Departamento de 5 ambientes en Venta en Once","Departamento","Venta",-58.4064599478,-34.6146458268
"202005","CABA","Comuna 3",7,503,192,350001,"USD","Depto.tipo casa de 7 ambientes en Venta en Congreso","PH","Venta",-58.3955306,-34.6109696
"202005","GBA","Morón",2,60,45,14000,"ARS","Departamento en Centro de Moron","Departamento","Alquiler",-58.6212158,-34.6528832
"202005","CABA","Comuna 1",1,30,30,15000,"ARS","ALVEAR MARCELO TORCUATO DE 600","Departamento","Alquiler",-58.37476891,-34.59606641
"202005","CABA","Comuna 2",2,40,40,22000,"ARS","Departamento de 2 ambientes en Alquiler en Palermo","Departamento","Alquiler",-58.4156239,-34.5976719
"202005","CABA","Comuna 13",2,46,38,24000,"ARS","Departamento - Belgrano","Departamento","Alquiler",-58.4468228,-34.5596996
"202005","CABA","Comuna 2",2,41,41,17000,"ARS","Departamento - Barrio Norte","Departamento","Alquiler",-58.4045308,-34.5921625
"202005","CABA","Comuna 1",2,133,133,99000,"ARS","MACACHA GUEMES 300","Departamento","Alquiler",-58.363658,-34.6047936
"202005","GBA","Escobar",5,200,200,23000,"ARS","Casa - Maschwitz Club","Casa","Alquiler",-58.7560113,-34.3774649
"202005","GBA","Tigre",3,75,75,34000,"ARS","Alquiler2 dorm.  PB con jardín y cochera y piscina en  Portezuelo Nordelta. Tigre","Departamento","Alquiler",-58.6544622,-34.4026444
"202005","GBA","Tigre",3,75,75,34000,"ARS","Alquiler 3 amb. PB con jardín y cochera Portezuelo Nordelta. Tigre","Departamento","Alquiler",-58.6544622,-34.4026444
"202005","CABA","Comuna 10",3,55,55,15000,"ARS","Departamento 3 ambientes en Barrio Kennedy","Departamento","Alquiler",-58.518175,-34.633665
"202005","CABA","Comuna 14",3,80,80,27000,"ARS","OPORTUNIDAD! 3 AMBIENTES 80 M2 SEMIPISO EN EL BARRIO DE PALERMO","Departamento","Alquiler",-58.4145502,-34.5842059
"202005","GBA","Quilmes",3,68,65,23000,"ARS","Departamento 3 ambientes con cochera en alquiler - Quilmes Centro","Departamento","Alquiler",-58.2581254,-34.7260847
"202005","CABA","Comuna 14",3,118,118,46000,"ARS","Excelente Piso luminoso con coch fija en zona exclusiva","Departamento","Alquiler",-58.446164,-34.5678575
"202005","CABA","Comuna 2",3,55,55,25000,"ARS","Av. Quintana y Montevideo","Departamento","Alquiler",-58.3876273,-34.590313
"202005","CABA","Comuna 1",3,145,128,190000,"ARS","Excelente 3 amb. Amoblado/con cochera","Departamento","Alquiler",-58.3646043,-34.5994676
"202005","CABA","Comuna 1",3,145,128,160000,"ARS","Amoblado - Excelente 3 amb. con cochera.","Departamento","Alquiler",-58.3645525,-34.5994853
"202005","GBA","Tigre",4,75,75,24000,"ARS","Departamento - 4 ambientes - Riverside Towers - Tigre","Departamento","Alquiler",-58.5875053,-34.4320582
"202005","CABA","Comuna 2",8,601,400,650001,"USD","Depto.tipo casa de 8 ambientes en Venta en Barrio norte","PH","Venta",-58.403327,-34.5988286
"202005","CABA","Comuna 15",2,41,41,88900,"USD","Depto.tipo casa de 2 ambientes en Venta en Chacarita","PH","Venta",-58.4477355791,-34.5955966314
"202005","CABA","Comuna 15",2,41,41,88900,"USD","Depto.tipo casa de 2 ambientes en Venta en Villa crespo","PH","Venta",-58.4477355791,-34.5955966314
"202005","CABA","Comuna 3",2,36,36,81000,"USD","2 ambientes piso alto ( Azcuenaga y Tucuman) 100% luminoso!","Departamento","Venta",-58.4008999,-34.6015875
"202005","CABA","Comuna 1",1,30,30,76000,"USD","ALVEAR MARCELO TORCUATO DE 600","Departamento","Venta",-58.37476891,-34.59606641
"202005","CABA","Comuna 5",2,43,40,90000,"USD","Departamento de 2 ambientes en Venta en Almagro","Departamento","Venta",-58.416505,-34.607177
"202005","CABA","Comuna 3",2,38,35,110000,"USD","Departamento de 2 ambientes en Venta en Almagro","Departamento","Venta",-58.4057042,-34.6006579
"202005","CABA","Comuna 3",2,41,38,95000,"USD","Departamento de 2 ambientes en Venta en Almagro","Departamento","Venta",-58.4011154821,-34.6141416926
"202005","CABA","Comuna 5",2,51,47,186170,"USD","Departamento de 2 ambientes en Venta en Almagro","Departamento","Venta",-58.4183102,-34.6033231
"202005","CABA","Comuna 5",2,51,47,188910,"USD","Departamento de 2 ambientes en Venta en Almagro","Departamento","Venta",-58.4183102,-34.6033231
"202005","CABA","Comuna 3",2,32,24,80001,"USD","Departamento de 2 ambientes en Venta en Almagro","Departamento","Venta",-58.4140877,-34.6111273
"202005","CABA","Comuna 15",2,63,47,205000,"USD","Departamento de 2 ambientes en Venta en Almagro","Departamento","Venta",-58.4312525568,-34.5991381138
"202005","CABA","Comuna 14",2,48,43,175800,"USD","Departamento de 2 ambientes en Venta en Palermo","Departamento","Venta",-58.4201224,-34.5880071
"202005","CABA","Comuna 15",2,63,47,205000,"USD","Departamento de 2 ambientes en Venta en Palermo","Departamento","Venta",-58.4312525568,-34.5991381138
"202005","CABA","Comuna 14",2,54,49,255000,"USD","Fitz Roy 1400 Palermo 2amb c/coch U$255.000 Apto Prof","Departamento","Venta",-58.4394854,-34.5868194
"202005","CABA","Comuna 14",2,42,42,67500,"USD","Mansilla 3600 Palermo 2amb U$67.500 Apto Prof","Departamento","Venta",-58.4143949,-34.5912627
"202005","CABA","Comuna 14",2,42,40,145000,"USD","Jerónimo Salguero 1800 Palermo 2amb U$145.000 Apto Prof","Departamento","Venta",-58.4158288,-34.5895185
"202005","CABA","Comuna 14",2,52,47,185000,"USD","Departamento de 2 ambientes en Venta en Palermo","Departamento","Venta",-58.4225652442,-34.5891051595
"202005","CABA","Comuna 14",2,52,47,185000,"USD","Departamento de 2 ambientes en Venta en Palermo soho","Departamento","Venta",-58.4225652442,-34.5891051595
"202005","CABA","Comuna 15",2,51,46,167500,"USD","Departamento de 2 ambientes en Venta en Palermo","Departamento","Venta",-58.4421207,-34.5934642
"202005","CABA","Comuna 2",2,52,42,95000,"USD","SAN LUIS 3200","Departamento","Venta",-58.411898,-34.5993844
"202005","CABA","Comuna 15",2,50,50,80000,"USD","Departamento de 2 ambientes en Venta en Villa crespo","Departamento","Venta",-58.4412092,-34.5967584
"202005","CABA","Comuna 15",2,72,53,118000,"USD","Departamento de 2 ambientes en Venta en Villa crespo","Departamento","Venta",-58.4420136891,-34.6026556865
"202005","CABA","Comuna 15",2,63,47,205000,"USD","Departamento de 2 ambientes en Venta en Villa crespo","Departamento","Venta",-58.4312525568,-34.5991381138
"202005","CABA","Comuna 15",2,52,46,124000,"USD","Departamento de 2 ambientes en Venta en Villa crespo","Departamento","Venta",-58.4422322,-34.5933706
"202005","CABA","Comuna 15",2,43,40,119000,"USD","Departamento de 2 ambientes en Venta en Villa crespo","Departamento","Venta",-58.4435034,-34.5995431
"202005","CABA","Comuna 15",2,46,46,179972,"USD","Departamento de 2 ambientes en Venta en Villa crespo","Departamento","Venta",-58.4408726,-34.5977603
"202005","CABA","Comuna 15",2,42,42,109000,"USD","Departamento de 2 ambientes en Venta en Villa crespo","Departamento","Venta",-58.43597,-34.60093
"202005","CABA","Comuna 15",2,37,37,141363,"USD","Departamento de 2 ambientes en Venta en Villa crespo","Departamento","Venta",-58.4408726,-34.5977603
"202005","CABA","Comuna 15",2,51,46,147000,"USD","Departamento de 2 ambientes en Venta en Villa crespo","Departamento","Venta",-58.4421207,-34.5934642
"202005","CABA","Comuna 15",2,52,46,159000,"USD","Departamento de 2 ambientes en Venta en Villa crespo","Departamento","Venta",-58.4422322,-34.5933706
"202005","CABA","Comuna 11",2,49,43,115000,"USD","DOS AMBIENTES A ESTRENAR","Departamento","Venta",-58.4741673,-34.6181408
"202005","CABA","Comuna 6",2,37,37,85001,"USD","Departamento de 2 ambientes en Venta en Parque centenario","Departamento","Venta",-58.4431133,-34.6091881
"202005","GBA","General San Martín",1,36,36,66600,"USD","Departamento Monoambiente Doble Ventanal - Depto """"E""""","Departamento","Venta",-58.56581,-34.5605065
"202005","CABA","Comuna 2",3,70,70,240000,"USD","Depto.tipo casa de 3 ambientes en Venta en Palermo","PH","Venta",-58.4131417667,-34.5960270913
"202005","CABA","Comuna 15",3,78,78,156000,"USD","Depto.tipo casa de 3 ambientes en Venta en Villa crespo","PH","Venta",-58.4459660365,-34.6031983574
"202005","GBA","Tres de Febrero",3,123,55,89900,"USD","Ph tipo Casa 3 amb con patio, terraza y quincho","PH","Venta",-58.535137,-34.6168365
"202005","GBA","Tigre",3,107,79,150000,"USD","Departamento Nordelta - Home 3 , Tres Ambientes","Departamento","Venta",-58.6490534,-34.3947674
"202005","CABA","Comuna 15",3,52,52,135000,"USD","Departamento de 3 ambientes en Venta en Almagro","Departamento","Venta",-58.4297224,-34.6003976
"202005","CABA","Comuna 3",3,71,66,116000,"USD","Departamento de 3 ambientes en Venta en Almagro","Departamento","Venta",-58.4145903,-34.6104156
"202005","CABA","Comuna 5",3,80,65,160000,"USD","Departamento de 3 ambientes en Venta en Almagro","Departamento","Venta",-58.4195317663,-34.6095151384
"202005","CABA","Comuna 14",3,72,68,380000,"USD","Gurruchaga y Charcas 3 ambientes en venta con cochera fija","Departamento","Venta",-58.4225987114,-34.585034915
"202005","CABA","Comuna 2",3,65,60,178001,"USD","Departamento de 3 ambientes en Venta en Palermo","Departamento","Venta",-58.4133636,-34.5976645
"202005","CABA","Comuna 14",3,72,68,380000,"USD","Gurruchaga y Charcas 3 ambientes en venta con cochera fija","Departamento","Venta",-58.4226681602,-34.5848432742
"202005","GBA","Quilmes",3,75,75,175000,"USD","Nuevo Quilmes, externo , APTO MASCOTA","Departamento","Venta",-58.2927438763,-34.6971822948
"202005","CABA","Comuna 3",3,39,39,54900,"USD","Oportunidad! 3 ambientes 39m2 a reciclar. Consultar posibilidad de financiación.","Departamento","Venta",-58.4063973,-34.6186031
"202005","CABA","Comuna 13",3,140,80,245000,"USD","Departamento de 3 ambientes en Venta en Colegiales","Departamento","Venta",-58.4553959,-34.5677571
"202005","GBA","San Isidro",3,106,91,410000,"USD","ARBORIS LAS LOMAS - DON BOSCO 1400","Departamento","Venta",-58.5347684,-34.4766292
"202005","CABA","Comuna 2",3,78,75,199000,"USD","Departamento de 3 ambientes en Venta en Barrio norte","Departamento","Venta",-58.4147214455,-34.5976964951
"202005","CABA","Comuna 15",3,91,86,183000,"USD","Departamento de 3 ambientes en Venta en Villa crespo","Departamento","Venta",-58.4380608302,-34.6010704781
"202005","CABA","Comuna 15",3,59,54,145000,"USD","Departamento de 3 ambientes en Venta en Villa crespo","Departamento","Venta",-58.4434425929,-34.5938278987
"202005","CABA","Comuna 15",3,87,77,173000,"USD","Departamento de 3 ambientes en Venta en Villa crespo","Departamento","Venta",-58.43683,-34.60252
"202005","CABA","Comuna 15",3,79,76,169000,"USD","Departamento de 3 ambientes en Venta en Villa crespo","Departamento","Venta",-58.43712,-34.59601
"202005","CABA","Comuna 1",3,145,128,650000,"USD","Excelente 3 amb. con cochera","Departamento","Venta",-58.3645525,-34.5994853
"202005","GBA","Vicente López",3,98,60,155000,"USD","Departamento 3 Amb en Florida","Departamento","Venta",-58.4955156,-34.5235852
"202005","CABA","Comuna 5",3,55,45,94000,"USD","Departamento de 3 ambientes en Venta en Parque centenario","Departamento","Venta",-58.4303447543,-34.6016938057
"202005","GBA","Morón",4,170,170,159900,"USD","Oportunidad! Triplex en Venta - 4 ambientes - Haedo","PH","Venta",-58.5834356,-34.6390803
"202005","CABA","Comuna 5",4,124,124,215000,"USD","Depto.tipo casa de 4 ambientes en Venta en Almagro","PH","Venta",-58.4156344,-34.6084931
"202005","CABA","Comuna 15",4,300,165,475000,"USD","Depto.tipo casa de 4 ambientes en Venta en Palermo","PH","Venta",-58.4369956068,-34.5932724106
"202005","CABA","Comuna 14",4,120,120,330001,"USD","Depto.tipo casa de 4 ambientes en Venta en Palermo","PH","Venta",-58.4165046,-34.5949064
"202005","CABA","Comuna 3",4,94,94,175000,"USD","Departamento de 4 ambientes en Venta en Once","Departamento","Venta",-58.399261679,-34.6031400479
"202005","GBA","Tigre",4,137,97,285000,"USD","Depto.Venta,4 Amb,TIGRE, AL LAGO, Villanueva, Benavidez,-Santa Clara Cub. 97,22,","Departamento","Venta",-58.7062665607,-34.3969322609
"202005","CABA","Comuna 5",4,97,89,290001,"USD","Departamento de 4 ambientes en Venta en Almagro","Departamento","Venta",-58.4310504,-34.6028961
"202005","CABA","Comuna 15",4,76,70,215000,"USD","Departamento de 4 ambientes en Venta en Almagro","Departamento","Venta",-58.4303431125,-34.6007708054
"202005","CABA","Comuna 3",4,56,54,140000,"USD","Departamento de 4 ambientes en Venta en Almagro","Departamento","Venta",-58.4069098,-34.6136411
"202005","CABA","Comuna 5",4,89,79,175001,"USD","Departamento de 4 ambientes en Venta en Almagro","Departamento","Venta",-58.4213742,-34.6163186
"202005","GBA","La Matanza",4,71,65,120000,"USD","SEMIPISO - MUY LUMINOSO - DETALLES CATEGORIA - TERRAZA PROPIA","Departamento","Venta",-58.5274849,-34.6912291
"202005","CABA","Comuna 6",4,195,190,360001,"USD","Departamento de 4 ambientes en Venta en Villa crespo","Departamento","Venta",-58.4382871,-34.6112053
"202005","CABA","Comuna 15",4,82,82,185000,"USD","Departamento de 4 ambientes en Venta en Villa crespo","Departamento","Venta",-58.4367799095,-34.5994703444
"202005","CABA","Comuna 15",4,181,118,255000,"USD","Departamento de 4 ambientes en Venta en Villa crespo","Departamento","Venta",-58.4382504193,-34.6008577036
"202005","CABA","Comuna 15",4,80,70,183001,"USD","Departamento de 4 ambientes en Venta en Villa crespo","Departamento","Venta",-58.4424273,-34.5994154
"202005","GBA","Vicente López",5,166,150,710000,"USD","EDIFICIO VISTA PUERTO DE OLIVOS - 4 AMB   DEPENDENCIAS - AL RIO/PTO.OLIVOS AMENITIES 2 COCHERAS","Departamento","Venta",-58.4775075,-34.5068394
"202005","GBA","La Matanza",5,150,150,250000,"USD","LOTE PROPIO - GARAGE - QUINCHO - PARRILLA - AMBIENTES AMPLIOS","Casa","Venta",-58.5310119,-34.6638511
"202005","GBA","La Matanza",5,180,180,280000,"USD","LOTE PROPIO - GARAGE PASANTE - DEPTO NUEVO AL FONDO","Casa","Venta",-58.5412493,-34.6683591
"202005","CABA","Comuna 5",5,124,105,466830,"USD","Departamento de 5 ambientes en Venta en Almagro","Departamento","Venta",-58.4183102,-34.6033231
"202005","CABA","Comuna 5",5,124,105,480168,"USD","Departamento de 5 ambientes en Venta en Almagro","Departamento","Venta",-58.4183102,-34.6033231
"202005","CABA","Comuna 5",5,124,105,493506,"USD","Departamento de 5 ambientes en Venta en Almagro","Departamento","Venta",-58.4183102,-34.6033231
"202005","CABA","Comuna 5",5,124,105,446823,"USD","Departamento de 5 ambientes en Venta en Almagro","Departamento","Venta",-58.4183102,-34.6033231
"202005","CABA","Comuna 5",5,124,105,440154,"USD","Departamento de 5 ambientes en Venta en Almagro","Departamento","Venta",-58.4183102,-34.6033231
"202005","CABA","Comuna 14",5,170,160,580000,"USD","Departamento de 5 ambientes en Venta en Belgrano","Departamento","Venta",-58.433008,-34.57025
"202005","CABA","Comuna 11",2,75,71,15000,"ARS","Nazca y Juan B. Justo: depto 2 amb con gran patio y dependencia","Departamento","Alquiler",-58.4758669847,-34.618271468
"202005","CABA","Comuna 5",2,38,38,16500,"ARS","HERMOSO DOS AMBIENTES, SUPER LUNIMOSO","Departamento","Alquiler",-58.4199354,-34.6155181
"202005","CABA","Comuna 2",2,35,35,14500,"ARS","2 AMBIENTES | CORDOBA, AVDA. al 3400","Departamento","Alquiler",-58.4150097,-34.5976546
"202005","CABA","Comuna 2",2,47,42,20000,"ARS","Departamento de 2 ambientes en Alquiler en Recoleta","Departamento","Alquiler",-58.394654,-34.595148
"202005","CABA","Comuna 2",3,150,90,60000,"ARS","Hermosa PB con jardín! Edificio de categoría en Recoleta","Departamento","Alquiler",-58.3863139,-34.5899607
"202005","CABA","Comuna 6",2,45,45,27000,"ARS","OPORTUNIDAD! 2 AMB 45 M² EN LUJOSA TORRE A ESTRENAR LA PALMERA CABALLITO!","Departamento","Alquiler",-58.4295917,-34.6272421
"202005","CABA","Comuna 1",2,44,40,23000,"ARS","QUARTIER SAN TELMO- 2 ambientes Balcon Cochera","Departamento","Alquiler",-58.3760109302,-34.6246759868
"202005","GBA","San Miguel",2,45,45,12500,"ARS","EN ALQUILER. DEPTO. IMPECABLE ESTADO. 2 AMB. CON COCHERA. PLANTA ALTA. Italia 244, San Miguel","Departamento","Alquiler",-58.7006567952,-34.5369216561
"202005","GBA","San Miguel",2,38,38,12500,"ARS","Alquiler Depto. 2 Ambientes. San Miguel CENTRO. Impecable!! EDIFICIO ISA II - SAN MIGUEL","Departamento","Alquiler",-58.7069009958,-34.5417393749
"202005","GBA","San Miguel",2,38,38,12500,"ARS","Alquiler Departamento 2 Ambientes. Impecable!! EDIFICIO ITATI II - SAN MIGUEL","Departamento","Alquiler",-58.7086009,-34.537734
"202005","CABA","Comuna 10",2,45,40,18500,"ARS","ALQUILER VILLA LURO Semipiso 2 AMB.  Amplio Luminoso y Ventilado con balcón a la calle.","Departamento","Alquiler",-58.5032092,-34.6307824
"202005","CABA","Comuna 15",2,49,45,22000,"ARS","Departamento de 2 ambientes en Alquiler en Villa crespo","Departamento","Alquiler",-58.4351333586,-34.594755343
"202005","GBA","Vicente López",2,50,47,30000,"ARS","Departamento a estrenar en venta en Olivos","Departamento","Alquiler",-58.4837263,-34.5068583
"202005","GBA","Vicente López",2,79,75,100000,"ARS","Alquiler Temporal 2 ambientes con cochera (amoblado) en Torres Al Rio","Departamento","Alquiler",-58.465448,-34.5334857
"202005","CABA","Comuna 12",2,45,40,23000,"ARS","VENTA EXCELENTE DEPARTAMENTO AMPLIO A ESTRENAR MUY BUENA ACCESIBILIDAD EN VILLA PUEYRREDÓN","Departamento","Alquiler",-58.4963066,-34.5801393
"202005","CABA","Comuna 12",2,43,38,18000,"ARS",".Alquiler Villa Pueyrredón, 2 amb frte. balcón vista abierta, moderno","Departamento","Alquiler",-58.4972387,-34.5857282
"202005","GBA","Pilar",3,74,74,26000,"ARS","GRAN OPORTUNIDAD! DEPARTAMENTO 3 AMBIENTES EN CONDOMINIO BOSQUE ALTO RESIDENCIAS - PILAR","Departamento","Alquiler",-58.8962265,-34.4461951
"202005","GBA","Quilmes",3,60,52,17000,"ARS","Departamento en alquiler en Quilmes Ctro. 3 amb. Alvear e/ Olavarria y H. Primo.","Departamento","Alquiler",-58.253438,-34.7237472
"202005","GBA","Vicente López",3,85,85,55000,"ARS","DEPARTAMENTO EN ALQUILER EN OLIVOS, VICENTE LOPEZ.","Departamento","Alquiler",-58.4823365248,-34.505936477
"202005","GBA","Tres de Febrero",3,48,46,15000,"ARS","Departamento 3 ambientes c/ balcn al frente","Departamento","Alquiler",-58.5797382,-34.5830015
"202005","GBA","San Miguel",8,288,270,73500,"ARS","Alquiler Temporario - Bella Vista","Casa","Alquiler",-58.699624099,-34.5657198904
"202005","CABA","Comuna 14",2,51,51,164000,"USD","Depto.tipo casa de 2 ambientes en Venta en Palermo","PH","Venta",-58.4217895615,-34.5919381183
"202005","CABA","Comuna 14",2,51,51,164000,"USD","Depto.tipo casa de 2 ambientes en Venta en Palermo soho","PH","Venta",-58.4217895615,-34.5919381183
"202005","GBA","San Isidro",2,65,46,170000,"USD","UNICO LOFT EN PLANTA BAJA A LA VENTA EN MARTINEZ","PH","Venta",-58.4971002,-34.488748
"202005","GBA","Pilar",1,34,30,115000,"USD","Departamento en Lagoon Pilar","Departamento","Venta",-58.8510597239,-34.4123180895
"202005","GBA","Tigre",2,49,44,105000,"USD","Excelente departamento 2 ambientes en Tigre, Dardo Rocha! VENTA","Departamento","Venta",-58.5775132,-34.4303225
"202005","GBA","Tigre",2,56,49,154000,"USD","DEPARTAMENTO EN VENTA EN ZADUH NORDELTA","Departamento","Venta",-58.645421,-34.390209
"202005","CABA","Comuna 5",2,51,47,191646,"USD","Departamento de 2 ambientes en Venta en Almagro","Departamento","Venta",-58.4183102,-34.6033231
"202005","CABA","Comuna 5",2,42,39,94000,"USD","Departamento de 2 ambientes en Venta en Almagro","Departamento","Venta",-58.4163880796,-34.6123370718
"202005","CABA","Comuna 14",2,43,37,163300,"USD","Departamento de 2 ambientes en Venta en Palermo","Departamento","Venta",-58.4201224,-34.5880071
"202005","CABA","Comuna 14",2,92,42,166000,"USD","Departamento de 2 ambientes en Venta en Palermo","Departamento","Venta",-58.42413734,-34.59732979
"202005","CABA","Comuna 14",2,103,51,164000,"USD","Departamento de 2 ambientes en Venta en Palermo soho","Departamento","Venta",-58.4217895615,-34.5919381183
"202005","CABA","Comuna 14",3,114,105,370326,"USD","Departamento tipo loft en dúplex con balcón","Departamento","Venta",-58.4224547423,-34.5815635426
"202005","CABA","Comuna 14",2,59,54,195000,"USD","Departamento de 2 ambientes en Venta en Palermo soho","Departamento","Venta",-58.4224567078,-34.5895017991
"202005","CABA","Comuna 14",2,79,65,235000,"USD","Departamento - Las Cañitas","Departamento","Venta",-58.4293297,-34.5719761
"202005","CABA","Comuna 14",2,43,37,167750,"USD","Departamento de 2 ambientes en Venta en Palermo","Departamento","Venta",-58.4201224,-34.5880071
"202005","CABA","Comuna 14",2,132,57,249534,"USD","Departamento 2 ambientes con balcón y terraza","Departamento","Venta",-58.4224547423,-34.5815635426
"202005","CABA","Comuna 14",2,90,60,450000,"USD","U$S 450.000 - 2 amb - Palermo - Amenabar 80 (CaG)","Departamento","Venta",-58.4335472,-34.5816987
"202005","CABA","Comuna 14",2,38,34,145000,"USD","Departamento con Balcón en Venta - Palermo Hollywood","Departamento","Venta",-58.4336199,-34.5814285
"202005","CABA","Comuna 14",2,103,51,164000,"USD","Departamento de 2 ambientes en Venta en Palermo","Departamento","Venta",-58.4217895615,-34.5919381183
"202005","CABA","Comuna 14",2,105,73,262247,"USD","Departamento 2 ambientes con amplia terraza","Departamento","Venta",-58.4224547423,-34.5815635426
"202005","CABA","Comuna 14",2,39,39,200000,"USD","U$S 200.000 - 2 amb - Palermo - Amenabar 80 (CaG)","Departamento","Venta",-58.4394812577,-34.5771604024
"202005","CABA","Comuna 2",3,68,67,240000,"USD","Shiaffino y Posadas: espectacular 3 ambientes en increíble cuadra!","Departamento","Venta",-58.3889669,-34.5856837
"202005","CABA","Comuna 4",2,52,42,141682,"USD","EXCELENTE 2 AMBIENTES CON BALCON AL FRENTE","Departamento","Venta",-58.3711999,-34.6353022
"202005","CABA","Comuna 4",2,59,44,170748,"USD","ESPECTACULAR 2 AMBIENTES CON BALCON AL FRENTE","Departamento","Venta",-58.3711999,-34.6353022
"202005","CABA","Comuna 13",2,45,40,244800,"USD","Departamento en Venta con Renta - Belgrano","Departamento","Venta",-58.4459405,-34.5602451
"202005","CABA","Comuna 13",2,60,49,148000,"USD","VENTA EN POZO - BELGRANO """"R""""","Departamento","Venta",-58.4474094,-34.5724437
"202005","CABA","Comuna 13",1,40,40,115000,"USD","Hermoso monoambiente en Belgrano!!!","Departamento","Venta",-58.4520949,-34.553906
"202005","CABA","Comuna 15",2,38,38,99000,"USD","Departamento de 2 ambientes en Venta en Caballito","Departamento","Venta",-58.4420597266,-34.6037095045
"202005","CABA","Comuna 6",2,38,35,145000,"USD","Venta - Monoambiente Divisible con Balcon y Cochera - Caballito","Departamento","Venta",-58.4605379,-34.614849
"202005","CABA","Comuna 5",2,74,56,160000,"USD","Departamento de 2 ambientes en Venta en Caballito","Departamento","Venta",-58.4226390036,-34.6156201897
"202005","GBA","San Isidro",2,65,46,170000,"USD","UNICO LOFT EN PB AMUEBLADO EN VENTA EN MARTINEZ","Departamento","Venta",-58.4971002,-34.488748
"202005","GBA","Berazategui",2,50,50,80000,"USD","Departamento en Venta en Terrazas del Lago - Hudson Park","Departamento","Venta",-58.1716653,-34.8079366
"202005","GBA","Berazategui",2,50,50,80000,"USD","Departamento en Venta en Terrazas del Lago - Hudson Park","Departamento","Venta",-58.1719212717,-34.8095478256
"202005","CABA","Comuna 15",2,37,37,134411,"USD","Departamento de 2 ambientes en Venta en Villa crespo","Departamento","Venta",-58.4408726,-34.5977603
"202005","CABA","Comuna 15",2,49,46,155280,"USD","Departamento de 2 ambientes en Venta en Villa crespo","Departamento","Venta",-58.4408726,-34.5977603
"202005","CABA","Comuna 15",2,48,42,127000,"USD","Departamento de 2 ambientes en Venta en Villa crespo","Departamento","Venta",-58.4328099305,-34.601567889
"202005","CABA","Comuna 12",2,47,47,98000,"USD","Divino departamento 2 ambientes en Villa Urquiza!!","Departamento","Venta",-58.4838738,-34.5788968
"202005","GBA","Vicente López",2,72,56,226950,"USD","Duplex con Balcón y Terraza en Nuevo Emprendimiento - Vicente Lopez","Departamento","Venta",-58.4786299,-34.5371848
"202005","GBA","Vicente López",1,35,32,131500,"USD","Monoambiente con Balcón en Nuevo Emprendimiento - Vicente Lopez","Departamento","Venta",-58.4786299,-34.5371848
"202005","GBA","Tres de Febrero",2,45,40,67000,"USD","Departamento - Santos Lugares","Departamento","Venta",-58.5454095,-34.6006989
"202005","GBA","Esteban Echeverría",2,60,55,98000,"USD","Departamento - Monte Grande","Departamento","Venta",-58.4620124,-34.8271786
"202005","CABA","Comuna 5",3,67,67,179000,"USD","Depto.tipo casa de 3 ambientes en Venta en Almagro","PH","Venta",-58.41416,-34.60165
"202005","CABA","Comuna 14",3,79,79,278000,"USD","Depto.tipo casa de 3 ambientes en Venta en Palermo","PH","Venta",-58.438606918,-34.5847684467
"202005","CABA","Comuna 14",3,79,79,278000,"USD","Depto.tipo casa de 3 ambientes en Venta en Palermo soho","PH","Venta",-58.438606918,-34.5847684467
"202005","CABA","Comuna 15",3,82,60,180000,"USD","Charlone al 500 y Av. Federico Lacroze. Ideal INVERSION PARA RECICLAR","PH","Venta",-58.4514013,-34.5829336
"202005","GBA","Pilar",3,74,74,160000,"USD","GRAN OPORTUNIDAD! DEPARTAMENTO 3 AMBIENTES EN CONDOMINIO BOSQUE ALTO RESIDENCIAS - PILAR","Departamento","Venta",-58.8962265,-34.4461951
"202005","GBA","Tigre",3,137,79,295000,"USD","Departamento - Enyoi","Departamento","Venta",-58.631293,-34.4090982
"202005","CABA","Comuna 15",3,90,90,215000,"USD","Departamento de 3 ambientes en Venta en Almagro","Departamento","Venta",-58.4332771385,-34.6029634667
"202005","CABA","Comuna 14",3,65,65,133000,"USD","Departamento de 3 ambientes en Venta en Palermo","Departamento","Venta",-58.4370437064,-34.5910697961
"202005","CABA","Comuna 14",3,181,79,278000,"USD","Departamento de 3 ambientes en Venta en Palermo soho","Departamento","Venta",-58.4386044814,-34.5847707831
"202005","CABA","Comuna 14",3,87,77,350000,"USD","Espectacular 3 ambientes con cochera en Cañitas!","Departamento","Venta",-58.432053,-34.5695153
"202005","CABA","Comuna 14",3,181,79,278000,"USD","Departamento de 3 ambientes en Venta en Palermo hollywood","Departamento","Venta",-58.4386044814,-34.5847707831
"202005","CABA","Comuna 14",3,181,79,278000,"USD","Departamento de 3 ambientes en Venta en Palermo","Departamento","Venta",-58.4386044814,-34.5847707831
"202005","CABA","Comuna 14",3,74,66,265000,"USD","Departamento único, 3 ambientes imperdibles - Alquiler opción compra - Palermo Chico","Departamento","Venta",-58.4114241,-34.5795885
"202005","CABA","Comuna 14",3,90,80,500000,"USD","U$S 500.000 - 3 amb con Renta - Palermo - Amenabar 30 (CaG)","Departamento","Venta",-58.4393193138,-34.5775823079
"202005","CABA","Comuna 14",3,72,65,215000,"USD","Departamento de 3 ambientes en Venta en Palermo soho","Departamento","Venta",-58.4236273658,-34.5902892427
"202005","CABA","Comuna 14",3,86,83,415000,"USD","Venta Departamento 3 ambientes con cochera y full amenities, Quartier Boulevard","Departamento","Venta",-58.430423,-34.5819781
"202005","CABA","Comuna 14",3,80,70,450000,"USD","U$S 450.000 - 3 amb con cochera - Palermo - Santa Fe 5000 (LeM)","Departamento","Venta",-58.4300893847,-34.5766060656
"202005","CABA","Comuna 14",3,58,58,158001,"USD","Departamento de 3 ambientes en Venta en Palermo","Departamento","Venta",-58.4224198,-34.5899668
"202005","CABA","Comuna 14",3,87,77,350000,"USD","Espectacular 3 ambientes con cochera!","Departamento","Venta",-58.432053,-34.5695153
"202005","CABA","Comuna 14",3,82,65,325000,"USD","Departamento de 3 ambientes en Venta en Palermo","Departamento","Venta",-58.4198356,-34.5905277
"202005","CABA","Comuna 14",3,141,111,450000,"USD","Espectacular Duplex con terraza!!!! (posibilidad de depto. chico en parte de pago)","Departamento","Venta",-58.4386388356,-34.5861136618
"202005","CABA","Comuna 14",3,122,80,420000,"USD","U$S 420.000 - 3 amb con cochera - Palermo - Uriarte 1300 (GET)","Departamento","Venta",-58.4354746,-34.5895862
"202005","CABA","Comuna 14",3,72,65,215000,"USD","Departamento de 3 ambientes en Venta en Palermo","Departamento","Venta",-58.4236273658,-34.5902892427
"202005","CABA","Comuna 14",3,141,111,450000,"USD","Espectacular Duplex con terraza!!!! (posibilidad de depto. chico en parte de pago)","Departamento","Venta",-58.438499,-34.5860751
"202005","CABA","Comuna 4",3,63,56,177766,"USD","EXCELENTE 3 AMBIENTES CON BALCON  AL CONTRAFRENTE","Departamento","Venta",-58.3711999,-34.6353022
"202005","CABA","Comuna 4",3,64,56,188679,"USD","ESPECTACULAR 3 AMBIENTES CON BALCON AL FRENTE","Departamento","Venta",-58.3711999,-34.6353022
"202005","CABA","Comuna 13",3,129,67,320000,"USD","VENTA 3 AMB PARRILLA Y JACUZY  EN POZO - BELGRANO """"R""""","Departamento","Venta",-58.4474094,-34.5724437
"202005","CABA","Comuna 13",3,73,73,299000,"USD","Divino Departamento - 3 amb. a estrenar -  coch. - sum - parrilla -  jacuzzi - 73 m2","Departamento","Venta",-58.4508374,-34.5529009
"202005","GBA","La Plata",5,110,110,115000,"USD","Departamento - La Plata","Departamento","Venta",-57.9612621,-34.9337588
"202005","GBA","Berazategui",2,90,90,130000,"USD","Departamento en Venta en Terrazas del Lago - Hudson Park","Departamento","Venta",-58.1716653,-34.8079366
"202005","CABA","Comuna 1",3,77,77,250000,"USD","Semipiso en venta","Departamento","Venta",-58.3866227,-34.5970829
"202005","CABA","Comuna 2",3,83,80,240000,"USD","Departamento de 3 ambientes en Venta en Barrio norte","Departamento","Venta",-58.415341,-34.598362
"202005","CABA","Comuna 5",3,77,67,235500,"USD","Departamento de 3 ambientes en Venta en Villa crespo","Departamento","Venta",-58.4304928,-34.60662
"202005","CABA","Comuna 15",3,63,60,150000,"USD","Departamento de 3 ambientes en Venta en Villa crespo","Departamento","Venta",-58.4415068505,-34.5969993059
"202005","CABA","Comuna 15",3,64,64,199000,"USD","Oportunidad - 3 amb c/coch - 64 m2 - Torre de Categoría - Full Amenities - Villa Crespo","Departamento","Venta",-58.4251773,-34.5991827
"202005","CABA","Comuna 15",3,111,80,265000,"USD","Departamento de 3 ambientes en Venta en Villa crespo","Departamento","Venta",-58.4392903383,-34.5977120943
"202005","CABA","Comuna 15",3,79,74,248000,"USD","Departamento de 3 ambientes en Venta en Villa crespo","Departamento","Venta",-58.4412119904,-34.5948372014
"202005","CABA","Comuna 15",3,90,90,215000,"USD","Departamento de 3 ambientes en Venta en Villa crespo","Departamento","Venta",-58.4332771385,-34.6029634667
"202005","CABA","Comuna 15",3,67,62,220000,"USD","EXCELENTE DEPARTAMENTO EN VENTA 3 AMBIENTES","Departamento","Venta",-58.4682561,-34.5846606
"202005","GBA","Vicente López",3,131,94,580000,"USD","Excelente 3 ambientes en Torre Mayor con increíble vista al Río!","Departamento","Venta",-58.4776725,-34.5075324
"202005","GBA","Almirante Brown",3,80,70,149999,"USD","Excelente, Duplex de 3 Ambientes, Apto Profesional y Financiación.","Departamento","Venta",-58.3928475,-34.7965209
"202005","CABA","Comuna 4",3,63,60,93000,"USD","Departamento de 3 ambientes en Venta en Parque patricios","Departamento","Venta",-58.4154462258,-34.647734046
"202005","CABA","Comuna 15",3,90,90,215000,"USD","Departamento de 3 ambientes en Venta en Parque centenario","Departamento","Venta",-58.4332771385,-34.6029634667
"202005","CABA","Comuna 15",3,67,57,149000,"USD","Departamento de 3 ambientes en Venta en Parque centenario","Departamento","Venta",-58.4340567019,-34.6033356135
"202005","CABA","Comuna 15",3,82,74,215000,"USD","Departamento de 3 ambientes en Venta en Parque centenario","Departamento","Venta",-58.4375316924,-34.6039504503
"202005","CABA","Comuna 1",4,120,120,260001,"USD","Depto.tipo casa de 4 ambientes en Venta en Almagro","PH","Venta",-58.37344,-34.6085
"202005","GBA","Pilar",4,901,120,159000,"USD","Casa - San Sebastián","Casa","Venta",-58.8871319,-34.3446975
"202005","GBA","Pilar",4,170,155,270000,"USD","Venta casa  4 ambientes San Sebastian Zelaya  a estrenar con costa al agua","Casa","Venta",-58.891823618,-34.3411200438
"202005","GBA","Tigre",5,332,290,630000,"USD","Casa en venta 5 amb. a la laguna San Francisco, Villanueva - Tigre","Casa","Venta",-58.6965238,-34.3738672
"202005","GBA","Ezeiza",5,280,280,280000,"USD","Casa - Quintas Del Sol","Casa","Venta",-58.6277096,-34.8968374
"202005","GBA","Escobar",4,212,179,390000,"USD","Casa a la venta en Barrio Cerrado Los Ceibos, Puertos del Lago - Costa de Lago y Pileta","Casa","Venta",-58.7357248603,-34.3533805464
"202005","GBA","Escobar",4,150,150,220000,"USD","Casa con Pileta en Venta - Barrio San Matias, Escobar","Casa","Venta",-58.7509554,-34.3611265
"202005","GBA","Lomas de Zamora",4,213,213,310000,"USD","Casa - Temperley Este","Casa","Venta",-58.3869478,-34.7803264
"202005","GBA","Esteban Echeverría",4,200,150,365000,"USD","Casa - Los Rosales","Casa","Venta",-58.4863773,-34.8782186
"202005","GBA","Esteban Echeverría",4,243,231,310000,"USD","Casa - Monte Grande","Casa","Venta",-58.4692422,-34.8105726
"202005","GBA","General San Martín",5,337,207,125000,"USD","OPORTUNIDAD! CHALET 5 AMB, JARDIN, QUINCHO - VILLA BALLESTER","Casa","Venta",-58.5701928,-34.5561827
"202005","CABA","Comuna 1",4,291,152,780000,"USD","Excelente departamento con jardín en Recoleta","Departamento","Venta",-58.375833,-34.594722
"202005","CABA","Comuna 5",4,140,135,360000,"USD","Departamento de 4 ambientes en Venta en Almagro","Departamento","Venta",-58.4305506021,-34.6031140805
"202005","CABA","Comuna 5",4,120,90,225000,"USD","Departamento de 4 ambientes en Venta en Almagro","Departamento","Venta",-58.4193986952,-34.6009568898
"202005","CABA","Comuna 5",4,148,135,325000,"USD","Departamento de 4 ambientes en Venta en Almagro","Departamento","Venta",-58.43163,-34.60401
"202005","CABA","Comuna 14",4,128,123,387066,"USD","Departamento 4 ambientes con balcón","Departamento","Venta",-58.4224547423,-34.5815635426
"202005","CABA","Comuna 14",5,194,194,519000,"USD","Departamento - Botanico","Departamento","Venta",-58.4148446,-34.5824346
"202005","CABA","Comuna 14",4,86,74,265000,"USD","Excelente 4 ambientes en Palermo con cochera!","Departamento","Venta",-58.4250990445,-34.5800894934
"202005","CABA","Comuna 14",4,150,100,325001,"USD","Departamento de 4 ambientes en Venta en Palermo","Departamento","Venta",-58.428424199,-34.5905361831
"202005","CABA","Comuna 1",4,164,150,375000,"USD","Excelente Semipiso 3 dormitorios a nuevo con 2 cocheras!","Departamento","Venta",-58.3905293,-34.6083972
"202005","CABA","Comuna 1",4,291,152,780000,"USD","Excelente departamento con jardín en Recoleta","Departamento","Venta",-58.3790685,-34.5919687
"202005","CABA","Comuna 1",4,310,310,990000,"USD","U$S 990.000 - 4 amb - Cochera - Dep. - Recoleta - Santa Fe 1300 (CaG)","Departamento","Venta",-58.3862469565,-34.5953668198
"202005","CABA","Comuna 2",4,182,160,889000,"USD","Ayacucho 1500-Recoleta-Torre con Amenities","Departamento","Venta",-58.3934946312,-34.5913487261
"202005","CABA","Comuna 2",6,267,257,795000,"USD","Excelente Semipiso 3 dormitorios a nuevo con cochera en Ayacucho y Quintana!","Departamento","Venta",-58.3906217,-34.5887903
"202005","CABA","Comuna 6",4,125,110,426000,"USD","Espectacular 4 amb. 125 m2 en hermosa torre c/amenities premium - Palmera caballito","Departamento","Venta",-58.4295863,-34.628187
"202005","GBA","San Isidro",4,265,170,900000,"USD","Venta de Departamento con Terraza y Piscina Propia en Nuevo Emprendimiento - Martinez","Departamento","Venta",-58.4843524,-34.4911547
"202005","CABA","Comuna 2",4,78,71,230000,"USD","Departamento 4 ambientes. Excelente Ubicación. a una Cuadra de Avenida Santa Fe.","Departamento","Venta",-58.4014496,-34.5965697
"202005","CABA","Comuna 1",4,310,310,990000,"USD","U$S 990.000 - 4 amb - Cochera - Dep. - Recoleta - Santa Fe 1300 (CaG)","Departamento","Venta",-58.3865044486,-34.5957554176
"202005","CABA","Comuna 15",4,71,64,155000,"USD","Departamento de 4 ambientes en Venta en Villa crespo","Departamento","Venta",-58.4542708597,-34.6019929547
"202005","CABA","Comuna 1",5,232,228,1690000,"USD","Excepcional piso alto en Torre El Faro","Departamento","Venta",-58.3594909,-34.6122815
"202005","GBA","Vicente López",4,148,118,720000,"USD","Venta - Departamento con Excelente Vista al Río - Olivos","Departamento","Venta",-58.477893,-34.5078519
"202005","CABA","Comuna 15",4,181,118,229000,"USD","Departamento de 4 ambientes en Venta en Parque centenario","Departamento","Venta",-58.4382504193,-34.6008577036
"202005","GBA","General San Martín",5,190,140,250000,"USD","DEPARTAMENTO 5 AMB EN 1ER PISO - SAN MARTN CENTRO","Departamento","Venta",-58.5397759,-34.5780865
"202005","CABA","Comuna 5",5,79,60,109900,"USD","OPORTUNIDAD VENTA! PH 5 AMB CON PATIO CON TECHO DE CHAPA CORREDIZO. A RECICLAR!","PH","Venta",-58.4173195,-34.6198305
"202005","GBA","Tigre",7,490,490,750000,"USD","Casa - Santa Maria De Tigre","Casa","Venta",-58.6381786,-34.4008493
"202005","GBA","Esteban Echeverría",5,300,295,460000,"USD","Casa - Los Naranjos","Casa","Venta",-58.4834604,-34.8816809
"202005","GBA","Esteban Echeverría",7,349,313,700000,"USD","Casa - Los Naranjos","Casa","Venta",-58.4834604,-34.8816809
"202005","GBA","Esteban Echeverría",5,230,220,439000,"USD","Casa - Saint Thomas","Casa","Venta",-58.4998722,-34.8880732
"202005","CABA","Comuna 14",4,275,275,1500000,"USD","PALERMO IMPEC. DUPLEX C/TERRAZA PROPIA, RECICLADO  CATEGORIA Y VISTA KENNEDY Y  CERVIÑO","Departamento","Venta",-58.4199688,-34.5761774
"202005","CABA","Comuna 13",5,160,160,499000,"USD","RETASADO u$2800 m2 - OPORTUNIDAD - AV LIBERTADOR 5600 - IMPECABLE 5 AMB VISTA ABIERTA","Departamento","Venta",-58.4446098,-34.5605195
"202005","CABA","Comuna 1",9,360,343,870000,"USD","Espectacular piso en venta en Juncal y Suipacha! De revista!","Departamento","Venta",-58.3796307,-34.5927949
"202005","CABA","Comuna 2",6,267,257,795000,"USD","Excelente Semipiso 4 dormitorios a nuevo con cochera en Ayacucho y Quintana!","Departamento","Venta",-58.3906217,-34.5887903
"202005","CABA","Comuna 1",5,249,249,590000,"USD","Elegante piso en San Telmo. Pasaje Santamarina.","Departamento","Venta",-58.3768424,-34.6150948
"202005","GBA","Berazategui",6,350,350,1099000,"USD","Casa - Abril Club De Campo","Casa","Venta",-58.1642721,-34.8022056
"202006","CABA","Comuna 7",1,40,37,22500,"ARS","Departamento - Flores","Departamento","Alquiler",-58.4622191,-34.619175
"202006","CABA","Comuna 13",1,30,30,18000,"ARS","Retasado! Monoambiente en Nuñez, excelente ubicación!","Departamento","Alquiler",-58.4665175968,-34.5546024135
"202006","CABA","Comuna 13",1,31,29,17900,"ARS","Departamento - Belgrano","Departamento","Alquiler",-58.4646081,-34.563179
"202006","CABA","Comuna 1",1,35,35,42000,"ARS","Monoambiente con cochera. Zencity. Puerto Madero","Departamento","Alquiler",-58.3608973857,-34.6183551151
"202006","GBA","Vicente López",1,36,27,19000,"ARS","Alquiler TORRE dpto de 1o2 ambientes - excelente luz y vista cochera optativa","Departamento","Alquiler",-58.4934526,-34.5334427
"202006","GBA","La Matanza",2,24,24,12000,"ARS","PH - Lomas Del Mirador","PH","Alquiler",-58.5291444,-34.6625311
"202006","GBA","General San Martín",2,40,40,15000,"ARS","PH - Chilavert","PH","Alquiler",-58.5757339,-34.5430063
"202006","CABA","Comuna 13",2,60,50,32000,"ARS","Depto 2AMB c/ Suite y Toilette  - Deheza 1600 - Incluye Cochera","Departamento","Alquiler",-58.4667092,-34.5379549
"202006","CABA","Comuna 13",2,53,44,26000,"ARS","Unico 2 ambientes A Estrenar! Posesion inmediata! - Nuñez","Departamento","Alquiler",-58.4703691,-34.5475568
"202006","CABA","Comuna 1",2,39,34,14000,"ARS","DEPARTAMENTO-OFICINA 2 AMB AL FRENTE CON BALCÓN APTO PROFES PLAZA SAN MARTIN","Departamento","Alquiler",-58.3744272,-34.5965459
"202006","CABA","Comuna 5",2,45,38,20000,"ARS","Departamento de 2 ambientes en Alquiler en Almagro","Departamento","Alquiler",-58.4294671732,-34.6061252346
"202006","CABA","Comuna 12",2,42,37,22000,"ARS","Depto 2AMB - Av. Balbin 3400 - ALQUILER","Departamento","Alquiler",-58.4789811,-34.5569991
"202006","CABA","Comuna 14",2,43,33,27000,"ARS","Dos ambientes con Balcón a Demaría y Patio.","Departamento","Alquiler",-58.4224332846,-34.5742139495
"202006","CABA","Comuna 13",2,55,55,45000,"ARS","BLANCO ENCALADA AL 3000 A ESTRENAR","Departamento","Alquiler",-58.4655023,-34.5631335
"202006","CABA","Comuna 14",2,48,48,23000,"ARS","Departamento - Belgrano","Departamento","Alquiler",-58.4355947,-34.5645618
"202006","GBA","La Plata",2,50,50,18000,"ARS","Alquiler, depto de un domitorio frente al parque San Martin","Departamento","Alquiler",-57.9660540652,-34.9341467304
"202006","GBA","La Plata",2,35,35,13500,"ARS","Departamento - La Plata","Departamento","Alquiler",-57.9733496737,-34.9064534615
"202006","CABA","Comuna 1",2,45,45,32000,"ARS","Departamento - Recoleta","Departamento","Alquiler",-58.3843923,-34.5970758
"202006","CABA","Comuna 6",2,46,42,15000,"ARS","Departamento - Caballito","Departamento","Alquiler",-58.4419105,-34.608312
"202006","GBA","Hurlingham",2,45,45,14800,"ARS","Departamento  2 ambientes, Ituzaingo","Departamento","Alquiler",-58.660399,-34.6250839
"202006","CABA","Comuna 2",2,50,35,26000,"ARS","Anchorena 1100  2 ambientes con balcon aterrazado y terraza común!","Departamento","Alquiler",-58.4067079,-34.595651
"202006","CABA","Comuna 2",2,41,41,18000,"ARS","Departamento - Barrio Norte","Departamento","Alquiler",-58.4045308,-34.5921625
"202006","CABA","Comuna 14",2,40,40,18000,"ARS","Departamento - Villa Crespo","Departamento","Alquiler",-58.4317591,-34.5953939
"202006","CABA","Comuna 15",2,46,46,20000,"ARS","Departamento de 2 ambientes en Alquiler en Villa crespo","Departamento","Alquiler",-58.4400177163,-34.5959688801
"202006","CABA","Comuna 12",2,48,40,20000,"ARS","EXCELENTE 2 AMBIENTES AL FRENTE CON BALCON EN VILLA URQUIZA, EDIFICIO CON PISCINA Y PARILLA","Departamento","Alquiler",-58.4914578,-34.5705179
"202006","GBA","Vicente López",2,40,33,23000,"ARS","Departamento 2 ambientes impecable - Olivos","Departamento","Alquiler",-58.4814443,-34.508992
"202006","GBA","Lomas de Zamora",2,45,42,14000,"ARS","Departamento - Lomas de Zamora Este","Departamento","Alquiler",-58.395937,-34.7592533
"202006","GBA","Lomas de Zamora",2,44,44,20000,"ARS","Departamento - Lomas de Zamora Oeste","Departamento","Alquiler",-58.4053147,-34.7626139
"202006","GBA","General San Martín",2,56,48,14000,"ARS","Departamento céntrico - Villa Ballester","Departamento","Alquiler",-58.5551186,-34.5503757
"202006","GBA","Ituzaingó",3,75,75,19000,"ARS","Americana a 6 cuadras de la estacion de S.A. de Padua","Casa","Alquiler",-58.6971159,-34.6595669
"202006","GBA","Tigre",3,95,80,42000,"ARS","3 AMBIENTES EN EDIFICIO MIRADORES DE LA BAHIA CON COCHERA FIJA","Departamento","Alquiler",-58.6466527,-34.3964183
"202006","GBA","Tigre",3,98,90,42000,"ARS","¡EN EXCLUSIVA! Departamento en alquiler de 3 ambientes Miradores de La Bahía, Bahía de Nordelta.","Departamento","Alquiler",-58.6466471814,-34.3951200428
"202006","CABA","Comuna 13",3,109,94,90000,"ARS","Alquiler Depto 3 Amb a Estrenar Nuñez C/Cochera","Departamento","Alquiler",-58.4628614,-34.5452095
"202006","CABA","Comuna 14",3,152,152,240000,"ARS","ALQUILER en TORRES DE GELLY 152 m2 con 2 dorm dep y 1 coch ALTO vista Rio  SIN muebles","Departamento","Alquiler",-58.4049865,-34.5776022
"202006","CABA","Comuna 14",3,90,85,80000,"ARS","ALQUILER 3 AMB CON DEPENDENCIA! - Y COCHERA TORRE AMENITIES!!","Departamento","Alquiler",-58.4146161,-34.5935318
"202006","CABA","Comuna 14",3,64,60,25000,"ARS","Departamento de 3 ambientes en Alquiler en Palermo","Departamento","Alquiler",-58.4236267177,-34.59680321
"202006","CABA","Comuna 14",3,152,152,240000,"ARS","ALQUILER en TORRES DE GELLY 152 m2 con 2 dorm dep y 1 coch ALTO vista Rio","Departamento","Alquiler",-58.4049865,-34.5776022
"202006","CABA","Comuna 14",3,152,152,240000,"ARS","ALQUILER en TORRES DE GELLY 152 m2 con 2 dorm dep y 1 coch ALTO vista Rio SIN muebles","Departamento","Alquiler",-58.4049865,-34.5776022
"202006","GBA","La Plata",3,40,40,10000,"ARS","Departamento - José Hernández","Departamento","Alquiler",-58.0278697602,-34.8976811478
"202006","GBA","La Plata",3,45,45,13000,"ARS","Departamento - La Plata","Departamento","Alquiler",-57.9440384936,-34.9165184241
"202006","CABA","Comuna 6",3,55,50,37000,"ARS","Departamento - Caballito Norte","Departamento","Alquiler",-58.4435468,-34.6125001
"202006","CABA","Comuna 6",3,62,59,33000,"ARS","Departamento 3 ambientes con balcón en Caballito","Departamento","Alquiler",-58.4509511,-34.6304243
"202006","CABA","Comuna 2",3,87,87,42000,"ARS","Av Pueyrredon y French","Departamento","Alquiler",-58.4005675,-34.5902414
"202006","CABA","Comuna 1",3,57,57,24000,"ARS","IMPECABLE DEPTO 3 AMB APTO PROF MUY LUMINOSO BAJAS EXPENSAS OPCIONAL AMOBLADO","Departamento","Alquiler",-58.3901595,-34.6065237
"202006","CABA","Comuna 14",3,64,60,25000,"ARS","Departamento de 3 ambientes en Alquiler en Villa crespo","Departamento","Alquiler",-58.4236267177,-34.59680321
"202006","CABA","Comuna 1",3,95,85,95000,"ARS","Departamento 3 ambientes con gran balcón aterrazado y cochera en Puerto Madero","Departamento","Alquiler",-58.3621419307,-34.6115385825
"202006","CABA","Comuna 1",3,80,70,50000,"ARS","ALQUILER 3 AMBIENTES PUERTO MADERO, AMOBLADO","Departamento","Alquiler",-58.3620692,-34.6161184
"202006","CABA","Comuna 1",3,135,130,210000,"ARS","Depto alquiler 3 ambientes con cochera y amenities en Torre River View, Puerto Madero","Departamento","Alquiler",-58.363063,-34.6060815
"202006","GBA","Vicente López",3,57,52,16000,"ARS","Departamento - Florida Mitre/Este","Departamento","Alquiler",-58.4800733,-34.5335505
"202006","CABA","Comuna 14",4,125,105,85000,"ARS","PH en alquiler 4 ambientes - Las Cañitas","PH","Alquiler",-58.4324886,-34.5720661
"202006","GBA","Merlo",4,180,140,27000,"ARS","Casa en Padua 3 dormitorios en alquiler","Casa","Alquiler",-58.7156537,-34.6615401
"202006","GBA","Pilar",4,267,267,50000,"ARS","Casa en venta o alquiler en La Peregrina","Casa","Alquiler",-58.822702889,-34.4709128693
"202006","GBA","Escobar",4,166,136,34000,"ARS","Casa en Venta 4 Ambientes Barrio El Ensueño","Casa","Alquiler",-58.7409350767,-34.366851005
"202006","GBA","San Isidro",4,180,180,48000,"ARS","Casa - Villa Adelina","Casa","Alquiler",-58.5449386,-34.5101195
"202006","GBA","Tigre",4,223,146,90000,"ARS","Los Robles Village - Departamento en venta","Departamento","Alquiler",-58.5896953,-34.4305099
"202006","CABA","Comuna 14",4,91,84,74000,"ARS","Alquiler en Palermo departamento 4 ambientes con cochera en Torre con amenities","Departamento","Alquiler",-58.4227935,-34.5847774
"202006","CABA","Comuna 2",4,72,62,35000,"ARS","Departamento - 4 ambientes con cochera en Recoleta!","Departamento","Alquiler",-58.3987505,-34.5924866
"202006","CABA","Comuna 6",4,93,84,42000,"ARS","Departamento - Caballito","Departamento","Alquiler",-58.4310929,-34.6215498
"202006","GBA","San Isidro",4,193,153,74000,"ARS","Departamento - San Isidro Central","Departamento","Alquiler",-58.5210255,-34.474716
"202006","GBA","Tigre",5,343,310,75000,"ARS","Casa en ALQUILER y VENTA en EL ENCUENTRO - Alquiler $75.000 / Venta USD 580.000.-","Casa","Alquiler",-58.6723292,-34.4324275
"202006","GBA","Escobar",5,290,235,80000,"ARS","Casa en venta en Barrio San Marco Villanueva - USD 400.000","Casa","Alquiler",-58.7201261,-34.3895838
"202006","GBA","Escobar",5,180,130,45000,"ARS","Casa - La Barra Village","Casa","Alquiler",-58.7821889711,-34.3683684048
"202006","CABA","Comuna 10",5,100,97,20000,"ARS","ALQUILO MUY BUEN DEPARTAMENTO 5 AMBIENTES EN FLORESTA","Departamento","Alquiler",-58.4809876,-34.634932
"202006","GBA","Tigre",6,330,225,75000,"ARS","Casa en Alquiler con Pileta en BARRANCAS DEL LAGO NORDELTA $75.000","Casa","Alquiler",-58.6642047,-34.4204092
"202006","GBA","Vicente López",7,550,400,150000,"ARS","ESPECTACULAR  CASA EN GASPAR CAMPOS - LA MEJOR CUADRA DE VICENTE LOPEZ!","Casa","Alquiler",-58.4766332,-34.5266023
"202006","GBA","Tigre",1,55,40,110000,"USD","Departamento de 1 amb. en venta en North Coral Plaza Nordelta USD 110.000.-","Departamento","Venta",-58.6524757,-34.4008097
"202006","GBA","Tigre",1,49,40,100000,"USD","Departamento Monoambiente en Loft del Sendero AMOBLADO USD 100.000.-","Departamento","Venta",-58.6489966,-34.4033675
"202006","CABA","Comuna 13",1,30,30,75000,"USD","Retasado! Monoambiente en Nuñez, excelente ubicación!","Departamento","Venta",-58.4665175968,-34.5546024135
"202006","CABA","Comuna 13",1,52,45,170000,"USD","Departamento - Coghlan","Departamento","Venta",-58.4660468,-34.5627857
"202006","CABA","Comuna 14",1,33,29,125000,"USD","Departamento - Palermo","Departamento","Venta",-58.4085036,-34.5867978
"202006","CABA","Comuna 14",1,34,30,71400,"USD","Emprendimiento en Palermo Holywood - Departamento 1 amb. con Balcón","Departamento","Venta",-58.4293844116,-34.5797730312
"202006","CABA","Comuna 15",1,33,33,83895,"USD","Oportunidad monoambiente","Departamento","Venta",-58.4457497,-34.6075947
"202006","CABA","Comuna 15",1,50,42,127015,"USD","Excelente oportunidad. Edificio nuevo en fase final de construcción","Departamento","Venta",-58.4457497,-34.6075947
"202006","CABA","Comuna 15",1,35,31,100000,"USD","OPORTUNIDAD VENTA MONOAMBIENTE A ESTRENAR UBICADO EN VILLA URQUIZA","Departamento","Venta",-58.47667,-34.579832
"202006","CABA","Comuna 11",2,52,52,104000,"USD","Depto.tipo casa de 2 ambientes en Venta en Paternal","PH","Venta",-58.467007,-34.607169
"202006","GBA","Ituzaingó",2,92,43,80000,"USD","PH DE 2 AMBIENTES A ESTRENAR EN ITUZAINGO NORTE","PH","Venta",-58.6811918,-34.6461127
"202006","CABA","Comuna 15",2,45,45,95000,"USD","Depto.tipo casa de 2 ambientes en Venta en Villa urquiza","PH","Venta",-58.4723123729,-34.5798985157
"202006","CABA","Comuna 11",2,52,52,105000,"USD","Depto.tipo casa de 2 ambientes en Venta en Villa gral.mitre","PH","Venta",-58.467007,-34.607169
"202006","GBA","La Plata",2,100,65,75000,"USD","139 entre 34 y 35. Duplex de 2 dorm en venta, San Carlos","Casa","Venta",-57.9993490275,-34.9329958303
"202006","CABA","Comuna 3",2,40,40,80000,"USD","OPORTUNIDAD! VENTA DEPARTAMENTO 2 AMBIENTES UBICADO EN EL CENTRO DE LA CIUDAD","Departamento","Venta",-58.3962083,-34.6047026
"202006","CABA","Comuna 5",2,30,30,65000,"USD","Departamento de 2 ambientes en Venta en Boedo","Departamento","Venta",-58.4190830127,-34.6261125628
"202006","GBA","Tigre",2,115,50,165000,"USD","Departamento 2 amb. en venta en Nordelta -  Edificio Insignia - Barrio El Palmar - USD 165.000.-","Departamento","Venta",-58.6583108,-34.4247
"202006","GBA","Tigre",2,85,70,155000,"USD","Departamento en venta con renta de 2 ambientes en Edificio 01 Tigre - USD 155.000.- CERO UNO TIGRE","Departamento","Venta",-58.583538,-34.4331419
"202006","GBA","Tigre",2,160,80,293000,"USD","Departamento 2 amb. en Marinas del Canal, Bahía Grande, Nordelta USD 293.000.-","Departamento","Venta",-58.6452402,-34.3943297
"202006","GBA","Tigre",2,69,60,160000,"USD","Departamento en VENTA QBAY GOLF - USD 160.000.-","Departamento","Venta",-58.6325064,-34.409058
"202006","GBA","Tigre",2,69,60,160000,"USD","Departamento en venta en Qbay Golf - 2 amb. - USD 193.000.-","Departamento","Venta",-58.6325064,-34.409058
"202006","GBA","Tigre",2,80,65,165000,"USD","Departamento de 2 amb. en venta en North Coral Plaza Nordelta USD 165.000.-","Departamento","Venta",-58.6524757,-34.4008097
"202006","GBA","Tigre",2,75,64,259000,"USD","Excelente y luminoso departamento de 2 ambientes. al rio. golf amarras, spa.","Departamento","Venta",-58.6242532,-34.4050954
"202006","CABA","Comuna 7",2,55,49,155000,"USD","Venta Departamento 2 ambientes balcon cochera parrilla Flores","Departamento","Venta",-58.457228,-34.6243707
"202006","CABA","Comuna 1",2,39,34,73000,"USD","DEPARTAMENTO-OFICINA 2 AMB AL FRENTE CON BALCÓN APTO PROFES PLAZA SAN MARTIN","Departamento","Venta",-58.3744272,-34.5965459
"202006","CABA","Comuna 5",2,74,56,160000,"USD","Departamento de 2 ambientes en Venta en Almagro","Departamento","Venta",-58.4226390036,-34.6156201897
"202006","CABA","Comuna 5",2,40,40,83000,"USD","Departamento de 2 ambientes en Venta en Almagro","Departamento","Venta",-58.4250902939,-34.6099131955
"202006","CABA","Comuna 15",2,66,58,190000,"USD","Departamento de 2 ambientes en Venta en Almagro","Departamento","Venta",-58.4300380813,-34.5982192139
"202006","CABA","Comuna 5",2,68,65,139500,"USD","Departamento de 2 ambientes en Venta en Almagro","Departamento","Venta",-58.41435,-34.60273
"202006","CABA","Comuna 5",2,37,37,74000,"USD","2 AMBIENTES IDEAL INVERSIÓN EN ALMAGRO","Departamento","Venta",-58.4243564,-34.6037317
"202006","CABA","Comuna 14",2,42,42,85000,"USD","Departamento de 2 ambientes en Venta en Palermo","Departamento","Venta",-58.4232193831,-34.5949286492
"202006","CABA","Comuna 15",2,66,58,190000,"USD","Departamento de 2 ambientes en Venta en Palermo","Departamento","Venta",-58.4300380813,-34.5982192139
"202006","CABA","Comuna 14",2,43,37,154500,"USD","Departamento de 2 ambientes en Venta en Palermo","Departamento","Venta",-58.4201224,-34.5880071
"202006","CABA","Comuna 13",2,34,33,110000,"USD","VENTA DEPARTAMENTO 2 AMBIENTES EN BELGRANO","Departamento","Venta",-58.4537776,-34.5659326
"202006","CABA","Comuna 14",2,56,51,145000,"USD","Belgrano | Teodoro García 2400 | Dúplex de 2 ambientes Apto Profesional.","Departamento","Venta",-58.4463742,-34.5708097
"202006","CABA","Comuna 10",2,49,40,105000,"USD","Departamento a estrenar 2 Ambientes en venta sobre Av. Juan B. Alberdi - Floresta - USD 105.000.-","Departamento","Venta",-58.4743757,-34.6352428
"202006","CABA","Comuna 2",2,55,51,200000,"USD","Departamento de 2 ambientes en Venta en Recoleta","Departamento","Venta",-58.41399,-34.59625
"202006","CABA","Comuna 3",2,49,45,82584,"USD","VENTA DEPARTAMENTO DE POZO 2 AMB.  EN BALVANERA","Departamento","Venta",-58.3965419,-34.6118473
"202006","CABA","Comuna 15",2,73,41,187272,"USD","Oportunidad","Departamento","Venta",-58.4457497,-34.6075947
"202006","CABA","Comuna 15",2,49,49,129187,"USD","Importante Oportunidad de invertir en proyección de futuro","Departamento","Venta",-58.4457497,-34.6075947
"202006","CABA","Comuna 15",2,52,52,131809,"USD","Excelente oportunidad","Departamento","Venta",-58.4457497,-34.6075947
"202006","CABA","Comuna 6",2,51,45,118000,"USD","Emprendimiento en Construccion en Cid Campeador  - Final de obra en 3 meses","Departamento","Venta",-58.4509879,-34.6101211
"202006","CABA","Comuna 15",2,49,49,126262,"USD","Excelente emprendimiento","Departamento","Venta",-58.4457497,-34.6075947
"202006","CABA","Comuna 10",2,61,53,162500,"USD","Departamento de 2 ambientes en VENTA en Mataderos - USD 162.500","Departamento","Venta",-58.5007749,-34.6444174
"202006","CABA","Comuna 10",2,65,53,147500,"USD","Departamento de 2 ambientes en VENTA  en Mataderos - USD 147.500","Departamento","Venta",-58.5007749,-34.6444174
"202006","CABA","Comuna 1",2,48,43,99000,"USD","Departamento de 2 ambientes en Venta en Monserrat","Departamento","Venta",-58.3780949947,-34.6084783391
"202006","CABA","Comuna 1",2,51,45,142000,"USD","2 ambientes en San Telmo. Con amenities","Departamento","Venta",-58.3742535566,-34.6243799517
"202006","GBA","La Matanza",2,27,27,40000,"USD","Departamento - Tapiales","Departamento","Venta",-58.51399,-34.6981247
"202006","GBA","La Matanza",2,48,48,70000,"USD","Departamento - Ramos Mejia Sur","Departamento","Venta",-58.5535859,-34.6530311
"202006","GBA","San Isidro",2,78,64,225000,"USD","Depto. en VENTA  - Pasionaria 2 amb.  USD 225.000.-","Departamento","Venta",-58.5164546,-34.4948079
"202006","GBA","San Isidro",2,55,50,182000,"USD","Departamento 2 ambientes en venta en Beccar Plaza 1 San Isidro con cochera USD 182000","Departamento","Venta",-58.5290856,-34.4639911
"202006","GBA","San Isidro",2,78,64,225000,"USD","Depto. en VENTA con renta - Pasionaria 2 amb.  USD 225.000.-","Departamento","Venta",-58.5164546,-34.4948079
"202006","CABA","Comuna 14",2,44,35,112000,"USD","Departamento - Barrio Norte","Departamento","Venta",-58.4098288497,-34.5889054057
"202006","GBA","San Fernando",2,50,50,125000,"USD","Departamento - Vict.-B.Centro","Departamento","Venta",-58.5466236,-34.4562893
"202006","CABA","Comuna 1",2,30,30,75000,"USD","Oportunidad 2 amb. Amueblado. Apto Profesional!!!","Departamento","Venta",-58.3801924,-34.6051493
"202006","CABA","Comuna 15",2,46,46,119000,"USD","Departamento de 2 ambientes en Venta en Villa crespo","Departamento","Venta",-58.4400177163,-34.5959688801
"202006","CABA","Comuna 15",2,42,42,64000,"USD","Departamento - Paternal","Departamento","Venta",-58.4491891,-34.5979588
"202006","CABA","Comuna 15",2,90,45,125000,"USD","Departamento de 2 ambientes en Venta en Villa crespo","Departamento","Venta",-58.4486783743,-34.5900904456
"202006","CABA","Comuna 14",2,52,47,139546,"USD","Departamento de 2 ambientes en Venta en Villa crespo","Departamento","Venta",-58.4437663903,-34.5862630496
"202006","CABA","Comuna 15",2,66,58,190000,"USD","Departamento de 2 ambientes en Venta en Villa crespo","Departamento","Venta",-58.4300380813,-34.5982192139
"202006","CABA","Comuna 1",2,67,62,319000,"USD","Departamento 2 ambientes c/cochera al frente en LUMIERE  Puerto Madero","Departamento","Venta",-58.362778881,-34.615682195
"202006","CABA","Comuna 3",2,52,44,100000,"USD","Espectacular 2 amb balcón, parrilla, cochera, pileta, jardín ¡Retasado!","Departamento","Venta",-58.4053431,-34.6168734
"202006","GBA","Vicente López",2,55,44,190000,"USD","Departamento - Olivos-Vias/Maipu","Departamento","Venta",-58.4933942,-34.5052088
"202006","CABA","Comuna 9",2,69,31,79900,"USD","Departamento de dos ambientes con balcón aterrizado!! ESPECTACULAR VISTA PANORÁMICA . OPORTUNIDAD!! - Parque Avellaneda","Departamento","Venta",-58.4851927,-34.6458562
"202006","GBA","General San Martín",2,48,44,87000,"USD","DEPARTAMENTO 2 AMBIENTES EN ZONA CÉNTRICA DE VILLA BALLESTER","Departamento","Venta",-58.5498961,-34.547519
"202006","GBA","La Plata",3,97,95,78000,"USD","47 e/18 y 19, P.H en venta sin expensas. Patio y terraza.","PH","Venta",-57.9635987354,-34.9238161817
"202006","CABA","Comuna 3",3,66,66,150000,"USD","Depto.tipo casa de 3 ambientes en Venta en Balvanera","PH","Venta",-58.3977189,-34.6171816
"202006","CABA","Comuna 3",3,85,69,144000,"USD","PH - Balvanera","PH","Venta",-58.4048793,-34.6133547
"202006","CABA","Comuna 9",3,54,54,80000,"USD","PH - Mataderos","PH","Venta",-58.509439,-34.6576291
"202006","CABA","Comuna 3",3,132,126,234500,"USD","PH 3 / 4 ambientes con entrada independiente sin expensas en Monserrat","PH","Venta",-58.3935210357,-34.6217046383
"202006","GBA","La Matanza",3,56,38,60000,"USD","VENTA PH 3 AMBIENTES SIN EXPENSAS EN RAMOS MEJIA","PH","Venta",-58.5617791,-34.6436571
"202006","GBA","Vicente López",3,165,99,240000,"USD","PH - A ESTRENAR CON DOBLE COCHERA, IMPECABLE!!","PH","Venta",-58.4987946,-34.5416757
"202006","CABA","Comuna 15",3,81,81,159000,"USD","Depto.tipo casa de 3 ambientes en Venta en Parque centenario","PH","Venta",-58.4485274117,-34.601211464
"202006","GBA","La Matanza",3,126,72,160000,"USD","VENTA DUPLEX 3 AMBIENTES CON COCHERA EN RAMOS MEJIA","Casa","Venta",-58.5515748,-34.6475028
"202006","GBA","San Isidro",3,107,107,230000,"USD","Casa - Martinez- HERMOSAS CASITAS INDEPENDIENTES PERO COMUNICADAS CON JARDIN.","Casa","Venta",-58.5205162,-34.4924252
"202006","GBA","Pilar",3,87,65,195000,"USD","Depto. con renta VENTA - LAGOON PILAR - 3 amb. USD 195.000","Departamento","Venta",-58.848873,-34.4111938
"202006","GBA","Pilar",3,87,65,180000,"USD","VENTA con renta en Lagoon Pilar - 3 amb. con vista USD 180.000.-","Departamento","Venta",-58.848873,-34.4111938
"202006","GBA","Pilar",3,98,98,132000,"USD","Departamento 3 amb. en venta en Pilar - Edificio Los Almendros USD 132.000.-","Departamento","Venta",-58.8745003,-34.4487569
"202006","GBA","Pilar",3,91,75,145000,"USD","Departamento - Del Viso","Departamento","Venta",-58.792278266,-34.430974225
"202006","GBA","Pilar",3,96,72,270000,"USD","Departamento en venta en Lagoon Pilar - 3 amb en Edificio AQUA  USD 270.000","Departamento","Venta",-58.8490348,-34.4111072
"202006","GBA","Tigre",3,105,72,240000,"USD","Bajo el precio ! Venta depto 3 amb planta baja con jardin  Portezuelo  Nordelta - Tigre","Departamento","Venta",-58.6544622,-34.4026444
"202006","GBA","Tigre",3,78,78,162000,"USD","Venta duplex 3 amb. con cochera con Renta - Homes 3 Nordelta - Tigre","Departamento","Venta",-58.656778,-34.425832
"202006","GBA","Tigre",3,103,95,338700,"USD","Excelente Departamento 3 ambientes a estrenar, Golf, Tenis, Futbol, Amarras y Spa.","Departamento","Venta",-58.6242532,-34.4050954
"202006","GBA","Tigre",3,132,75,210000,"USD","Departamento en VENTA, 3 AMB.  en Antares, Nordelta USD 215.000","Departamento","Venta",-58.649407,-34.400569
"202006","GBA","Tigre",3,90,85,140000,"USD","Super Oportunidad Departamento 3 ambientes El Reflejo Nordelta","Departamento","Venta",-58.6505239,-34.3943316
"202006","GBA","Tigre",3,95,75,249000,"USD","Venta 2 dorm planta baja con jardín y cochera cub. Portezuelo Nordelta. Tigre","Departamento","Venta",-58.6544622,-34.4026444
"202006","GBA","Tigre",3,130,75,210000,"USD","Depto. en venta en ANTARES 3 amb. con cochera y baulera - Nordelta USD 210.000","Departamento","Venta",-58.649407,-34.400569
"202006","GBA","Tigre",3,105,72,240000,"USD","Depto. en venta 3 amb planta baja con jardin REBAJADO  Portezuelo  Nordelta - Tigre","Departamento","Venta",-58.6544622,-34.4026444
"202006","GBA","Tigre",3,84,77,245000,"USD","VENTA Espectacular Departamento de 3 Ambientes con Cochera en  Miradores de la Bahia","Departamento","Venta",-58.6502182,-34.395573
"202006","GBA","Tigre",3,125,76,320000,"USD","Departamento en venta Marinas de Portezuelo, 3 amb. PB con Jardín USD 320.000.-","Departamento","Venta",-58.6506282,-34.4040675
"202006","GBA","Tigre",3,96,76,195000,"USD","DEPARTAMENTO 3 AMBIENTES EN VENTA EN PUERTO ESCONDIDO NORDELTA The Kiri - U$S195.000","Departamento","Venta",-58.6476628,-34.3967647
"202006","GBA","Tigre",3,228,96,290000,"USD","Departamento  3 ambientes en venta en  La Balconada, Barrio Castaños, Nordelta","Departamento","Venta",-58.5571624,-34.3866361
"202006","GBA","Tigre",3,201,105,349000,"USD","Departamento 3 amb. con terraza en venta en Edificio Vista Bahía  Nordelta","Departamento","Venta",-58.5907519,-34.4189088
"202006","GBA","Ezeiza",3,83,83,99000,"USD","IMPECABLE DEPARTAMENTO 3 AMB CON COCHERA EN BARRIO CERRADO BAMBU RELAX","Departamento","Venta",-58.507008,-34.8661927
"202006","CABA","Comuna 13",3,97,63,224560,"USD","Emprendimiento en Nuñez - Departamento 3 Amb. con Balcón + Patio","Departamento","Venta",-58.4665217,-34.5479578
"202006","CABA","Comuna 5",3,68,60,192000,"USD","Departamento de 3 ambientes en Venta en Almagro","Departamento","Venta",-58.4302755236,-34.6054973327
"202006","CABA","Comuna 5",3,80,75,205000,"USD","Departamento de 3 ambientes en Venta en Almagro","Departamento","Venta",-58.4308261623,-34.6018060771
"202006","CABA","Comuna 15",3,73,65,190000,"USD","Departamento de 3 ambientes en Venta en Almagro norte","Departamento","Venta",-58.4298039,-34.6006963
"202006","CABA","Comuna 5",3,85,57,166500,"USD","Departamento de 3 ambientes en Venta en Almagro","Departamento","Venta",-58.41435,-34.60273
"202006","CABA","Comuna 5",3,68,60,181000,"USD","Departamento de 3 ambientes en Venta en Almagro","Departamento","Venta",-58.4302755236,-34.6054973327
"202006","CABA","Comuna 5",3,68,60,188000,"USD","Departamento de 3 ambientes en Venta en Almagro","Departamento","Venta",-58.4302755236,-34.6054973327
"202006","CABA","Comuna 5",3,52,52,125000,"USD","Departamento de 3 ambientes en Venta en Almagro norte","Departamento","Venta",-58.4252948987,-34.6024282849
"202006","CABA","Comuna 14",3,70,60,220000,"USD","Departamento de 3 ambientes en Venta en Almagro","Departamento","Venta",-58.41937,-34.59769
"202006","CABA","Comuna 14",3,115,77,270000,"USD","Triplex con cohera en el corazón de palermo","Departamento","Venta",-58.4245897807,-34.584981942
"202006","CABA","Comuna 14",3,66,66,190000,"USD","Departamento de 3 ambientes en Venta en Palermo soho","Departamento","Venta",-58.4158886934,-34.5847947351
"202006","CABA","Comuna 14",3,75,63,225000,"USD","Departamento - Palermo","Departamento","Venta",-58.4131578,-34.5928441
"202006","CABA","Comuna 14",3,70,60,220000,"USD","Departamento de 3 ambientes en Venta en Palermo","Departamento","Venta",-58.41937,-34.59769
"202006","CABA","Comuna 2",3,90,82,265000,"USD","Departamento de 3 ambientes en Venta en Palermo","Departamento","Venta",-58.4014712986,-34.5899051842
"202006","GBA","Quilmes",3,113,93,350000,"USD","Departamento - Nuevo Quilmes Qualia 4 amb. con Cochera Doble en Subsuelo","Departamento","Venta",-58.2880406,-34.6990192
"202006","CABA","Comuna 13",3,66,60,210000,"USD","Departamento - Belgrano R","Departamento","Venta",-58.4606109,-34.572622
"202006","CABA","Comuna 13",3,80,66,256000,"USD","Emprendimiento en Belgrano - Departamento 3 Amb. con Balcón y Parrilla","Departamento","Venta",-58.4554160111,-34.5541458617
"202006","CABA","Comuna 10",3,61,57,140000,"USD","VENTA DEPARTAMENTO 3 AMBIENTES EN FLORESTA","Departamento","Venta",-58.4832594,-34.633282
"202006","CABA","Comuna 10",3,88,80,125000,"USD","Departamento de 3 ambientes en Venta en Floresta","Departamento","Venta",-58.4762461128,-34.6331244322
"202006","CABA","Comuna 15",3,68,60,96800,"USD","Departamento de 3 ambientes en Venta en Paternal","Departamento","Venta",-58.464604,-34.5987263
"202006","CABA","Comuna 15",3,80,80,209196,"USD","Importante Oportunidad frente al Cid Campeador, en caballito","Departamento","Venta",-58.4457497,-34.6075947
"202006","CABA","Comuna 6",3,68,65,160000,"USD","Departamento de 3 ambientes en Venta en Caballito","Departamento","Venta",-58.4435542233,-34.622034515
"202006","CABA","Comuna 15",3,110,58,188100,"USD","Departamento de 3 ambientes en Venta en Caballito","Departamento","Venta",-58.4430793478,-34.6072570523
"202006","CABA","Comuna 6",3,65,55,122000,"USD","Depto 3 Amb en Caballito en Av. Alberdi 200 en linda cuadra y buen reciclado","Departamento","Venta",-58.4315385,-34.6225654
"202006","CABA","Comuna 15",3,92,64,195000,"USD","Departamento de 3 ambientes en Venta en Chacarita","Departamento","Venta",-58.4493062,-34.5900555
"202006","CABA","Comuna 10",3,171,98,310000,"USD","Departamento de 3 ambientes con terraza en VENTA en Mataderos - USD 310.000.-","Departamento","Venta",-58.5007749,-34.6444174
"202006","CABA","Comuna 10",3,97,75,205000,"USD","Departamento de 3 ambientes en VENTA DUPLEX en Mataderos - USD 205.000","Departamento","Venta",-58.5007749,-34.6444174
"202006","CABA","Comuna 13",3,89,85,310000,"USD","Excelente 3 ambientes en la MUSA STAR!Totalmente remodelado, al frente!","Departamento","Venta",-58.4484841,-34.5822469
"202006","GBA","San Isidro",3,133,92,399900,"USD","Departamento en venta de 3 amb.   dep. en Pasionaria San Isidro - USD 399.000","Departamento","Venta",-58.5164546,-34.4948079
"202006","CABA","Comuna 14",3,70,60,220000,"USD","Departamento de 3 ambientes en Venta en Barrio norte","Departamento","Venta",-58.41937,-34.59769
"202006","CABA","Comuna 2",3,87,87,268000,"USD","Av Pueyrredon y French","Departamento","Venta",-58.4005675,-34.5902414
"202006","CABA","Comuna 1",3,57,57,133000,"USD","IMPECABLE DEPTO 3 AMB APTO PROF MUY LUMINOSO BAJAS EXPENSAS OPCIONAL AMOBLADO","Departamento","Venta",-58.3901595,-34.6065237
"202006","CABA","Comuna 15",3,90,90,170000,"USD","Departamento de 3 ambientes en Venta en Villa crespo","Departamento","Venta",-58.43884,-34.5979526
"202006","CABA","Comuna 5",3,80,75,205000,"USD","Departamento de 3 ambientes en Venta en Villa crespo","Departamento","Venta",-58.4308261623,-34.6018060771
"202006","CABA","Comuna 15",3,73,65,190000,"USD","Departamento de 3 ambientes en Venta en Villa crespo","Departamento","Venta",-58.4298039,-34.6006963
"202006","CABA","Comuna 15",3,61,51,139999,"USD","Departamento de 3 ambientes en Venta en Villa crespo","Departamento","Venta",-58.4438572393,-34.5976985478
"202006","CABA","Comuna 14",3,85,80,143546,"USD","Departamento de 3 ambientes en Venta en Villa crespo","Departamento","Venta",-58.4437663903,-34.5862630496
"202006","CABA","Comuna 15",3,140,130,340001,"USD","Departamento de 3 ambientes en Venta en Villa crespo","Departamento","Venta",-58.4342633,-34.6037853
"202006","CABA","Comuna 15",3,63,57,149000,"USD","Departamento de 3 ambientes en Venta en Villa crespo","Departamento","Venta",-58.4457693611,-34.5948581731
"202006","CABA","Comuna 1",3,107,92,650000,"USD","Impecable 3 Ambientes en Puerto Madero.","Departamento","Venta",-58.3633435603,-34.6109734562
"202006","CABA","Comuna 1",3,81,73,299900,"USD","Departamento 3 ambientes al contrafrente en Puerto Madero","Departamento","Venta",-58.3613050815,-34.6173838817
"202006","CABA","Comuna 1",3,128,122,620000,"USD","Departamento en venta en Puerto Madero 3 amb. USD 620.000","Departamento","Venta",-58.3615882,-34.6219563
"202006","CABA","Comuna 1",3,128,116,1450000,"USD","Departamento 3 ambientes en venta en Alvear Tower Puerto Madero -USD 1.450.000.-","Departamento","Venta",-58.3602301,-34.6122155
"202006","GBA","Vicente López",3,57,52,145000,"USD","Departamento - Florida Mitre/Este","Departamento","Venta",-58.4800733,-34.5335505
"202006","GBA","Lomas de Zamora",3,77,68,145000,"USD","ALQUILER - DEPTO. 3 AMBIENTES APTO PROF. O VIVIENDA, Lomas de Zamora","Departamento","Venta",-58.3993532065,-34.7619580161
"202006","GBA","Lomas de Zamora",3,80,75,220000,"USD","Departamento - Banfield Este","Departamento","Venta",-58.3930434,-34.742978
"202006","CABA","Comuna 15",3,110,58,188100,"USD","Departamento de 3 ambientes en Venta en Parque centenario","Departamento","Venta",-58.4430793478,-34.6072570523
"202006","GBA","General San Martín",3,60,60,53000,"USD","Departamento - San Andres","Departamento","Venta",-58.5346206,-34.5572406
"202006","CABA","Comuna 13",4,141,105,230000,"USD","PH DEPARTAMENTO PB 4 ambientes Venta coghlan BELGRANO nuñez","PH","Venta",-58.4695839,-34.5593037
"202006","CABA","Comuna 14",4,77,77,239001,"USD","Depto.tipo casa de 4 ambientes en Venta en Palermo","PH","Venta",-58.4268811,-34.5949317
"202006","CABA","Comuna 15",4,183,138,285000,"USD","Excelente PH de 4/5 ambientes - Terraza y Quincho","PH","Venta",-58.4665277,-34.5817635
"202006","CABA","Comuna 15",4,68,68,250000,"USD","Depto.tipo casa de 4 ambientes en Venta en Villa crespo","PH","Venta",-58.4342526685,-34.6018837897
"202006","CABA","Comuna 7",4,69,69,133000,"USD","PH en venta de 4 amb. en Parque Chacabuco - USD 133.000.-","PH","Venta",-58.43002,-34.634499
"202006","GBA","Merlo",4,120,120,95000,"USD","Casa - San Antonio De Padua","Casa","Venta",-58.7041108,-34.6655788
"202006","GBA","Pilar",4,267,267,350000,"USD","Casa en venta o alquiler en La Peregrina","Casa","Venta",-58.822702889,-34.4709128693
"202006","GBA","Pilar",4,169,138,163000,"USD","Casa - San Sebastián","Casa","Venta",-58.8867448,-34.3510419
"202006","GBA","Pilar",4,170,135,163000,"USD","Casa - San Sebastián","Casa","Venta",-58.8867448,-34.3510419
"202006","GBA","Pilar",4,176,144,171000,"USD","Casa - San Sebastián","Casa","Venta",-58.8867448,-34.3510419
"202006","GBA","Pilar",4,166,130,255000,"USD","Casa en venta de 4 dormitorios en Lagoon Pilar - Quántica - USD 255.000.-","Casa","Venta",-58.848873,-34.4111938
"202006","GBA","Tigre",4,351,254,545000,"USD","Venta casa 3 dorm. con dpcia. y escritorio  Bº El Encuentro  Tigre","Casa","Venta",-58.6722107,-34.4324531
"202006","GBA","Tigre",4,180,180,240000,"USD","Venta casa a estrenar 4 amb. y depcia. con baño completo. San Gabriel, Villanueva - Tigre","Casa","Venta",-58.6973634847,-34.3760372592
"202006","GBA","Tigre",4,170,150,255000,"USD","Venta casa 4 amb. con piscina en Vila Marina Villanueva","Casa","Venta",-58.6879340083,-34.3705020041
"202006","GBA","Tigre",4,170,150,255000,"USD","Casa en venta de 3 dorm. con piscina en Vila Marina Villanueva","Casa","Venta",-58.6879340083,-34.3705020041
"202006","GBA","Moreno",4,266,266,385000,"USD","Casa - Banco Provincia De Bs. As.","Casa","Venta",-58.7925377,-34.6355913
"202006","GBA","Moreno",4,660,212,285000,"USD","Se vende casa de 2 plantas en Country Banco Provincia.Vista al arroyo.","Casa","Venta",-58.8623352018,-34.6021192212
"202006","GBA","Escobar",4,124,124,79000,"USD","Casa - 4 Ambientes - Venta - Matheu - Escobar","Casa","Venta",-58.8236347,-34.3815187
"202006","GBA","Escobar",4,166,136,172000,"USD","Casa en Venta 4 Ambientes Barrio El Ensueño","Casa","Venta",-58.7409350767,-34.366851005
"202006","GBA","Quilmes",4,320,320,950000,"USD","Casa 4 ambientes en venta en Nuevo Quilmes","Casa","Venta",-58.2880406,-34.6990192
"202006","GBA","San Miguel",4,434,136,175000,"USD","Venta Casa 4 ambientes a terminar oportunidad jardin Muñiz","Casa","Venta",-58.7067200251,-34.5558923922
"202006","GBA","Tigre",4,112,74,210000,"USD","Departamento en venta en LAGO DEL SENDERO NORDELTA 4 AMB. PB CON DECK USD 210000","Departamento","Venta",-58.6528774,-34.4022441
"202006","GBA","Tigre",4,153,102,300000,"USD","Departamento 4 amb. en venta en POZO, Bahía Nordelta - USD 300.000","Departamento","Venta",-58.6476628,-34.3967647
"202006","GBA","Tigre",4,123,96,240000,"USD","Departamento de 4 amb. en venta en Edificio North Coral Plaza Suites Nordelta USD 240.000","Departamento","Venta",-58.6524757,-34.4008097
"202006","CABA","Comuna 7",4,143,126,230000,"USD","Departamento 4 amb/ C ochera y Dependencia  - Flores","Departamento","Venta",-58.4665951,-34.6272376
"202006","CABA","Comuna 13",4,141,105,230000,"USD","PH DEPARTAMENTO PB 4 ambientes Venta coghlan BELGRANO nuñez","Departamento","Venta",-58.4695839,-34.5593037
"202006","CABA","Comuna 5",4,104,92,261001,"USD","Departamento de 4 ambientes en Venta en Almagro","Departamento","Venta",-58.420206,-34.60258
"202006","CABA","Comuna 5",4,144,118,335000,"USD","Departamento de 4 ambientes en Venta en Almagro","Departamento","Venta",-58.4308322237,-34.6017989906
"202006","CABA","Comuna 5",4,198,175,310000,"USD","Departamento 4 ambientes en venta en Almagro con dependencia cochera y baulera","Departamento","Venta",-58.4313527,-34.6038933
"202006","CABA","Comuna 5",4,93,85,251000,"USD","Departamento de 4 ambientes en Venta en Almagro","Departamento","Venta",-58.4302755236,-34.6054973327
"202006","CABA","Comuna 5",4,85,75,195000,"USD","Departamento  4 ambientes frente balcón Almagro Usd 195.000.-","Departamento","Venta",-58.4280574,-34.613297
"202006","CABA","Comuna 5",4,93,85,265000,"USD","Departamento de 4 ambientes en Venta en Almagro","Departamento","Venta",-58.4302755236,-34.6054973327
"202006","CABA","Comuna 5",4,93,85,256000,"USD","Departamento de 4 ambientes en Venta en Almagro","Departamento","Venta",-58.4302755236,-34.6054973327
"202006","CABA","Comuna 5",4,93,85,260000,"USD","Departamento de 4 ambientes en Venta en Almagro","Departamento","Venta",-58.4302755236,-34.6054973327
"202006","CABA","Comuna 5",4,109,85,273000,"USD","Departamento de 4 ambientes en Venta en Almagro","Departamento","Venta",-58.4302755236,-34.6054973327
"202006","CABA","Comuna 5",4,104,92,261000,"USD","Departamento de 4 ambientes en Venta en Almagro","Departamento","Venta",-58.420206,-34.60258
"202006","CABA","Comuna 14",4,108,88,317550,"USD","Emprendimiento en Palermo - PISO de 4 AMBIENTES C/BALCÓN TERRAZA","Departamento","Venta",-58.4408842921,-34.5739362497
"202006","CABA","Comuna 14",4,150,140,850000,"USD","QUARTIER DEMARÍA - PISO ALTO - VISTA ABIERTA - 2 COCHERAS/FULL AMENITIES","Departamento","Venta",-58.421631,-34.5746022
"202006","CABA","Comuna 14",4,108,102,380000,"USD","Departamento 4 ambientes con dep. - Palermo","Departamento","Venta",-58.4414304,-34.5644966
"202006","CABA","Comuna 14",4,102,91,305000,"USD","Departamento en Venta en Belgrano, 3 dormitorios con dependencia ","Departamento","Venta",-58.4411939607,-34.5703185151
"202006","CABA","Comuna 2",4,127,103,309000,"USD","DEPARTAMENTO 4 AMBIENTES CON COCHERA Y DEPENDENCIA RECOLETA","Departamento","Venta",-58.395816,-34.594753
"202006","CABA","Comuna 2",4,165,141,449000,"USD","Lindisimo piso sobre Galileo.","Departamento","Venta",-58.3984404111,-34.585647988
"202006","CABA","Comuna 6",4,142,100,308000,"USD","Excelente depto tipo PH con Jardin - cochera opcional","Departamento","Venta",-58.449898,-34.630235
"202006","CABA","Comuna 6",4,111,110,195000,"USD","Excelente Departamento - 4 Ambientes con Balcon Frances","Departamento","Venta",-58.4459805,-34.6271228
"202006","CABA","Comuna 10",4,189,125,365000,"USD","Departamento de 4 ambientes en VENTA con terraza en Mataderos - USD 365.000","Departamento","Venta",-58.5007749,-34.6444174
"202006","CABA","Comuna 2",4,130,125,399000,"USD","Espectacular dpto 4 amb con cocina comedor súper amplio ! Cochera incluida","Departamento","Venta",-58.4041748,-34.5952325
"202006","GBA","San Fernando",4,163,128,530000,"USD","Departamento 4 amb en Venta  Om Residence Punta Chica con 2 cocheras","Departamento","Venta",-58.5314586,-34.4466125
"202006","CABA","Comuna 14",4,85,71,139546,"USD","Departamento de 4 ambientes en Venta en Villa crespo","Departamento","Venta",-58.4437663903,-34.5862630496
"202006","CABA","Comuna 15",4,145,135,275000,"USD","Departamento de 4 ambientes en Venta en Villa crespo","Departamento","Venta",-58.4354302773,-34.6019384444
"202006","CABA","Comuna 5",4,93,90,249000,"USD","Departamento de 4 ambientes en Venta en Villa crespo","Departamento","Venta",-58.4308322237,-34.6017989906
"202006","CABA","Comuna 8",4,67,60,45000,"USD","Departamento - Villa Lugano","Departamento","Venta",-58.4916184,-34.6783903
"202006","CABA","Comuna 1",4,152,141,1688000,"USD","Departamento 3 ambientes con dependencia en venta en Alvear Tower Puerto Madero - USD 1.688.000.-","Departamento","Venta",-58.3602301,-34.6122155
"202006","CABA","Comuna 5",5,60,60,125000,"USD","PH 5 amb. en venta sobre calle Bulnes 300 Barrio Almagro USD 125.000.-","PH","Venta",-58.4187724,-34.607411
"202006","CABA","Comuna 13",5,221,176,299000,"USD","PH - Colegiales","PH","Venta",-58.4610878,-34.5763794
"202006","GBA","Tigre",5,343,310,580000,"USD","Casa en ALQUILER y VENTA en EL ENCUENTRO - Alquiler $75.000 / Venta USD 580.000.-","Casa","Venta",-58.6723292,-34.4324275
"202006","GBA","Tigre",5,300,220,495000,"USD","Casa en venta en Barrancas del Lago Nordelta - Casa Pulte USD 495.000","Casa","Venta",-58.6587913,-34.4226327
"202006","GBA","Escobar",5,346,257,490000,"USD","Casa al agua en VENTA con RENTA AL AGUA en SAN BENITO VILLANUEVA TIGRE USD 490.000","Casa","Venta",-58.7183124,-34.3796301
"202006","GBA","Tigre",5,150,150,185000,"USD","VENTA  Tríplex de 3 Dorm y Playroom en Condominio Gral Pacheco","Casa","Venta",-58.6268454,-34.4575671
"202006","GBA","Tigre",5,240,240,415000,"USD","Venta casa 5 amb. c/depcia. en Santa María de Tigre - Rincón de Milberg Tigre","Casa","Venta",-58.6399031942,-34.4000632321
"202006","GBA","Escobar",5,290,235,399999,"USD","Casa en venta en Barrio San Marco Villanueva - USD 400.000","Casa","Venta",-58.7201261,-34.3895838
"202006","GBA","Vicente López",5,270,270,599000,"USD","CASA EN VENTA EN TIGRE CENTRO - USD 599.000","Casa","Venta",-58.4956059,-34.5427231
"202006","GBA","Moreno",5,800,216,75000,"USD","VENTA CASA 5 AMBIENTES EN LA REJA CON LOTE PROPIO 800 m2 - OPORTUNIDAD!","Casa","Venta",-58.8291695,-34.638955
"202006","CABA","Comuna 13",5,159,149,368000,"USD","Departamento de 5 ambientes al frente en Belgrano","Departamento","Venta",-58.4526094423,-34.5604586843
"202006","CABA","Comuna 10",5,100,97,160000,"USD","VENDO MUY BUEN DEPARTAMENTO 5 AMBIENTES EN FLORESTA","Departamento","Venta",-58.4809876,-34.634932
"202006","CABA","Comuna 12",5,101,94,285000,"USD","Departamento - Nuñez","Departamento","Venta",-58.4713407,-34.5496615
"202006","CABA","Comuna 12",5,88,80,280000,"USD","Departamento 5 ambientes  con cochera venta  Nuñez SAAVEDRA","Departamento","Venta",-58.472216,-34.55209
"202006","CABA","Comuna 1",5,263,223,520000,"USD","Departamento - San Telmo","Departamento","Venta",-58.3785193,-34.6233462
"202006","CABA","Comuna 1",5,161,155,295000,"USD","ELEGANTE SEMIPISO EN UN ANTIGUO EDIFICIO DE CATEGORIA.","Departamento","Venta",-58.3854384,-34.6065354
"202006","CABA","Comuna 1",5,191,186,1500000,"USD","Departamento en venta en El Faro Puerto Madero Capital Federal USD 1500000.-","Departamento","Venta",-58.363611,-34.605833
"202006","GBA","Pilar",6,291,291,350000,"USD","GB PROPIEDADES- OPORTUNIDAD EN AYRES PLAZA, EXCELENTE CASA!","Casa","Venta",-58.8376483,-34.4382679
"202006","GBA","Tigre",6,730,550,1100000,"USD","Casa en VENTA con RENTA USD 1.100.000.- LOTE AL AGUA.","Casa","Venta",-58.6311428,-34.4469643
"202006","GBA","Tigre",6,497,366,980000,"USD","Venta de excelente casa 6 amb. a la laguna - Santa Barbara - Nordelta - Tigre","Casa","Venta",-58.6334347267,-34.4458519027
"202006","GBA","Tigre",6,162,145,230000,"USD","VENTA CON RENTA Casa de 3 Dormitorios en Barrio Cerrado Lomas de Benavídez","Casa","Venta",-58.7088485,-34.4177904
"202006","GBA","Tigre",6,400,400,1280000,"USD","Casa en venta con renta en Barrio El Golf Nordelta USD 1.280.000","Casa","Venta",-58.645092,-34.497881
"202006","GBA","Tigre",6,300,300,530000,"USD","Venta con renta","Casa","Venta",-58.6699647,-34.410858
"202006","GBA","Tigre",6,280,255,620000,"USD","Casa al lago en venta en Barrio El Encuentro USD 620000 Bancalari Nordelta","Casa","Venta",-58.6815257,-34.439198
"202006","GBA","José C. Paz",6,150,150,85000,"USD","Venta Casa A reciclar sobre lote de 2.144 m² / Loteo Tierra Linda - Barrio Yei Pora - Jose C Paz","Casa","Venta",-58.7950621,-34.4903638
"202006","GBA","San Fernando",6,664,293,648000,"USD","Casa en venta con Renta en La Damasia en San Fernando USD 648.000.-","Casa","Venta",-58.5736701,-34.4590316
"202006","CABA","Comuna 12",6,310,310,970000,"USD","Depto Full Amenities Complejo Tronador 6 amb, 310 m2, 2 coch, dep,ofi,play","Departamento","Venta",-58.482434,-34.5594394
"202006","CABA","Comuna 1",6,236,218,685000,"USD","Departamento duplex  6 ambientes con cochera en Puerto Madero","Departamento","Venta",-58.3610690471,-34.617101339
"202006","GBA","Vicente López",6,250,250,165000,"USD","Edificio en Venta en MUNRO - USD 165.000.-","Departamento","Venta",-58.5243501,-34.5304233
"202006","GBA","Tigre",7,222,200,445000,"USD","VENTA  Casa a la Laguna de 3 Dormitorios en San Francisco, Villanueva","Casa","Venta",-58.7033254,-34.3896865
"202006","GBA","Vicente López",7,550,400,850000,"USD","ESPECTACULAR  CASA EN GASPAR CAMPOS - LA MEJOR CUADRA DE VICENTE LOPEZ!","Casa","Venta",-58.4766332,-34.5266023
"202006","GBA","Tigre",10,391,391,650000,"USD","VENTA de Casa de Dormitorios en Talar Del Lago","Casa","Venta",-58.643737,-34.448304
"202007","GBA","Tigre",2,108,69,20000,"ARS","DEPARTAMENTO EN ALQUILER EN NORDELTA 2 AMB CON TERRAZA Y JACUZZI","Departamento","Alquiler",-58.6492457307,-34.394372372
"202007","GBA","Tigre",2,57,45,27500,"ARS","2 ambientes con cochera y baulera - Vista al Lago Central","Departamento","Alquiler",-58.631293,-34.4090982
"202007","CABA","Comuna 14",1,45,40,23000,"ARS","Departamento en Alquiler con Balcón y Amenities","Departamento","Alquiler",-58.427492,-34.592742
"202007","CABA","Comuna 14",2,48,48,30000,"ARS","Botánico - 2 ambientes amueblado con vista a Boulevard Cerviño","Departamento","Alquiler",-58.4128868042,-34.579139434
"202007","CABA","Comuna 14",2,42,37,26000,"ARS","Departamento - Palermo","Departamento","Alquiler",-58.4158714,-34.5957084
"202007","CABA","Comuna 15",2,41,38,21000,"ARS","Departamento de 2 ambientes en Alquiler en Palermo","Departamento","Alquiler",-58.4302622745,-34.5985631833
